~Version Information Section
VERS.                 2.0:  CWLS log ASCII Standard -VERSION 2.0 
WRAP.                  NO:  One line per depth step 
DLM .               SPACE:  Column Data Section Delimiter
~Well Information Section 
#MNEM.UNIT       Data Type    Information 
#---------     -----------    -------------------------------
STRT.F           4072.3699: 
STOP.F          19473.3691: 
STEP.F              1.0000: 
NULL.              -999.25: 
COMP.              COMPANY: 
WELL.                 WELL:   MC 854-2
FLD .                FIELD: 
LOC .             LOCATION: 
PROV.             PROVINCE: 
SRVC.      SERVICE COMPANY: 
CTRY.              COUNTRY: 
DATE.             LOG DATE: 
UWI .       UNIQUE WELL ID: 
LATI.             LATITUDE:   
LONG.            LONGITUDE:   
~Curve Information Section 
#MNEM.UNIT      API Code      Curve Description 
#---------     -----------    -------------------------------
DEPTH.FT                 :     1   TVD - 
DT_ED.us/ft              :     2   DT - 
GRD .API                 :     3   GR - 
rhob_merge.g/cc          :     4   RHOB - 
~Parameter Information Section
#MNEM.UNIT         Value      Description  
#---------     -----------    -------------------------------
~A         DEPTH      DT_ED      GRD      rhob_merge
# ...
    8300.370      148.026       66.639        2.087 
    8301.370      147.933       67.990        2.103 
    8302.370      147.779       69.326        2.107 
    8303.370      147.584       67.152        2.097 
    8304.370      147.371       65.787        2.099 
    8305.370      146.692       68.496        2.100 
    8306.370      145.845       72.171        2.102 
    8307.370      145.549       72.494        2.103 
    8308.370      145.411       70.576        2.101 
    8309.370      145.377       70.534        2.100 
    8310.370      145.272       70.415        2.108 
    8311.370      145.292       68.872        2.111 
    8312.370      145.437       66.852        2.097 
    8313.370      145.550       69.064        2.085 
    8314.370      145.573       73.220        2.084 
    8315.370      145.400       73.177        2.088 
    8316.370      145.308       73.713        2.101 
    8317.370      145.328       66.851        2.107 
    8318.370      145.350       64.625        2.107 
    8319.370      145.557       66.468        2.107 
    8320.370      145.478       66.107        2.108 
    8321.370      145.499       67.566        2.112 
    8322.370      145.342       70.576        2.101 
    8323.370      145.325       67.342        2.091 
    8324.370      145.171       66.203        2.089 
    8325.370      144.628       68.342        2.080 
    8326.370      144.181       71.818        2.089 
    8327.370      143.961       70.019        2.105 
    8328.370      143.981       73.070        2.104 
    8329.370      144.005       77.922        2.105 
    8330.370      144.344       80.122        2.112 
    8331.370      145.018       74.614        2.109 
    8332.370      145.314       70.723        2.099 
    8333.370      145.335       71.235        2.091 
    8334.370      145.355       70.157        2.084 
    8335.370      145.338       71.015        2.085 
    8336.370      145.359       70.698        2.087 
    8337.370      145.379       66.596        2.078 
    8338.370      145.402       69.473        2.068 
    8339.370      145.230       71.934        2.072 
    8340.370      145.179       68.331        2.046 
    8341.370      145.201       64.670        2.054 
    8342.370      145.154       63.509        2.095 
    8343.370      144.783       65.121        2.096 
    8344.370      144.144       65.106        2.099 
    8345.370      143.700       65.902        2.096 
    8346.370      143.550       69.167        2.083 
    8347.370      143.572       71.928        2.084 
    8348.370      143.593       73.366        2.091 
    8349.370      143.780       74.826        2.103 
    8350.370      143.932       75.740        2.115 
    8351.370      143.690       73.811        2.126 
    8352.370      143.330       74.151        2.123 
    8353.370      142.913       75.643        2.122 
    8354.370      142.713       75.265        2.123 
    8355.370      142.743       75.270        2.116 
    8356.370      142.817       70.186        2.115 
    8357.370      143.429       66.356        2.122 
    8358.370      143.707       67.106        2.121 
    8359.370      144.056       69.158        2.119 
    8360.370      144.397       68.823        2.121 
    8361.370      144.432       68.015        2.120 
    8362.370      144.644       68.464        2.111 
    8363.370      144.681       72.464        2.105 
    8364.370      144.700       77.584        2.112 
    8365.370      144.447       78.811        2.118 
    8366.370      143.849       80.146        2.121 
    8367.370      143.670       77.422        2.125 
    8368.370      143.686       74.542        2.124 
    8369.370      143.460       73.680        2.121 
    8370.370      142.969       71.460        2.109 
    8371.370      142.607       68.826        2.071 
    8372.370      142.586       66.075        2.038 
    8373.370      142.602       66.239        2.048 
    8374.370      142.620       67.451        2.068 
    8375.370      142.555       66.018        2.082 
    8376.370      142.573       66.688        2.084 
    8377.370      142.589       68.494        2.086 
    8378.370      142.607       65.368        2.080 
    8379.370      142.786       66.949        2.049 
    8380.370      143.029       70.774        2.035 
    8381.370      143.423       70.717        2.051 
    8382.370      143.498       67.820        2.087 
    8383.370      143.675       64.099        2.082 
    8384.370      144.986       63.495        2.088 
    8385.370      146.727       65.178        2.095 
    8386.370      148.133       67.041        2.087 
    8387.370      148.769       69.102        2.093 
    8388.370      148.186       71.489        2.103 
    8389.370      147.850       73.048        2.105 
    8390.370      147.704       74.061        2.114 
    8391.370      147.823       74.387        2.130 
    8392.370      147.377       73.991        2.142 
    8393.370      146.568       73.849        2.136 
    8394.370      145.877       71.636        2.126 
    8395.370      145.594       68.582        2.105 
    8396.370      145.519       66.428        2.083 
    8397.370      145.144       64.509        2.087 
    8398.370      144.962       63.428        2.124 
    8399.370      144.937       63.847        2.126 
    8400.370      145.072       63.275        2.104 
    8401.370      145.173       64.308        2.108 
    8402.370      145.166       63.937        2.117 
    8403.370      144.991       63.772        2.126 
    8404.370      144.847       66.855        2.131 
    8405.370      144.308       70.350        2.130 
    8406.370      143.669       69.114        2.127 
    8407.370      143.472       65.643        2.130 
    8408.370      143.968       63.846        2.126 
    8409.370      144.610       62.281        2.113 
    8410.370      144.997       62.687        2.075 
    8411.370      145.387       63.927        2.034 
    8412.370      145.421       67.978        1.996 
    8413.370      145.243       71.973        1.986 
    8414.370      145.044       74.553        1.973 
    8415.370      144.664       76.513        1.934 
    8416.370      144.245       78.424        1.906 
    8417.370      144.152       80.260        1.888 
    8418.370      143.888       79.317        1.882 
    8419.370      143.495       78.044        1.885 
    8420.370      143.025       78.782        1.924 
    8421.370      142.879       77.571        1.999 
    8422.370      143.098       73.162        2.074 
    8423.370      143.485       71.662        2.084 
    8424.370      144.302       71.409        2.078 
    8425.370      144.824       70.941        2.074 
    8426.370      144.286       70.861        2.072 
    8427.370      143.293       72.299        2.072 
    8428.370      143.139       73.708        2.075 
    8429.370      143.409       73.335        2.072 
    8430.370      143.763       67.243        2.054 
    8431.370      143.993       65.264        2.041 
    8432.370      144.071       65.995        2.059 
    8433.370      144.286       66.708        2.085 
    8434.370      144.305       65.360        2.108 
    8435.370      144.524       67.717        2.124 
    8436.370      144.857       69.984        2.130 
    8437.370      145.190       70.053        2.123 
    8438.370      145.227       72.872        2.114 
    8439.370      145.244       76.131        2.112 
    8440.370      145.230       77.834        2.116 
    8441.370      145.455       74.687        2.112 
    8442.370      145.914       72.674        2.107 
    8443.370      147.400       72.574        2.111 
    8444.370      148.877       72.719        2.106 
    8445.370      148.660       69.475        2.045 
    8446.370      148.161       69.558        1.985 
    8447.370      147.858       73.441        1.976 
    8448.370      147.485       76.651        2.032 
    8449.370      147.399       78.701        2.060 
    8450.370      147.328       76.962        2.076 
