~Version Information Section
VERS.                 2.0:  CWLS log ASCII Standard -VERSION 2.0 
WRAP.                  NO:  One line per depth step 
DLM .               SPACE:  Column Data Section Delimiter
~Well Information Section 
#MNEM.UNIT       Data Type    Information 
#---------     -----------    -------------------------------
STRT.F           4072.3699: 
STOP.F          19473.3691: 
STEP.F              1.0000: 
NULL.              -999.25: 
COMP.              COMPANY: 
WELL.                 WELL:   MC 854-2
FLD .                FIELD: 
LOC .             LOCATION: 
PROV.             PROVINCE: 
SRVC.      SERVICE COMPANY: 
CTRY.              COUNTRY: 
DATE.             LOG DATE: 
UWI .       UNIQUE WELL ID: 
LATI.             LATITUDE:   
LONG.            LONGITUDE:   
~Curve Information Section 
#MNEM.UNIT      API Code      Curve Description 
#---------     -----------    -------------------------------
DEPTH.FT                 :     1   TVD - 
DT_ED.us/ft              :     2   DT - 
GRD .API                 :     3   GR - 
rhob_merge.g/cc          :     4   RHOB - 
~Parameter Information Section
#MNEM.UNIT         Value      Description  
#---------     -----------    -------------------------------
~A         DEPTH      DT_ED      GRD      rhob_merge
# ...
   13887.370      113.244       38.409        2.252 
   13888.370      113.622       40.180        2.235 
   13889.370      113.685       41.920        2.205 
   13890.370      113.851       44.563        2.167 
   13891.370      114.413       46.416        2.152 
   13892.370      114.652       41.016        2.156 
   13893.370      113.789       35.505        2.185 
   13894.370      111.861       33.117        2.190 
   13895.370      110.884       36.488        2.198 
   13896.370      113.189       42.585        2.256 
   13897.370      117.301       51.683        2.253 
   13898.370      114.906       64.821        2.268 
   13899.370      109.753       68.713        2.278 
   13900.370      104.962       69.334        2.287 
   13901.370      104.995       69.573        2.281 
   13902.370      105.175       69.869        2.257 
   13903.370      105.184       68.479        2.264 
   13904.370      102.965       68.832        2.290 
   13905.370      104.542       70.337        2.295 
   13906.370      105.039       71.619        2.291 
   13907.370      105.422       74.012        2.287 
   13908.370      102.386       72.830        2.319 
   13909.370      102.383       70.131        2.330 
   13910.370      103.303       71.393        2.298 
   13911.370      101.995       71.059        2.303 
   13912.370       97.129       68.415        2.323 
   13913.370       94.234       67.847        2.328 
   13914.370       91.485       66.734        2.339 
   13915.370       89.401       66.933        2.343 
   13916.370       94.875       70.578        2.298 
   13917.370      104.698       74.253        2.258 
   13918.370      108.207       78.605        2.250 
   13919.370      109.291       80.546        2.253 
   13920.370      109.824       81.206        2.265 
   13921.370      109.001       82.202        2.274 
   13922.370      105.937       81.886        2.282 
   13923.370      105.424       76.082        2.288 
   13924.370      107.937       77.506        2.296 
   13925.370      110.832       80.659        2.279 
   13926.370      111.239       80.984        2.275 
   13927.370      111.064       78.821        2.282 
   13928.370      109.949       74.279        2.285 
   13929.370      108.466       75.850        2.280 
   13930.370      108.432       77.946        2.290 
   13931.370      107.426       76.895        2.292 
   13932.370      105.498       79.496        2.290 
   13933.370      105.513       83.874        2.307 
   13934.370      106.421       79.032        2.308 
   13935.370      106.162       77.292        2.307 
   13936.370      106.170       79.415        2.311 
   13937.370      106.354       78.913        2.310 
   13938.370      106.574       79.690        2.309 
   13939.370      106.806       80.744        2.280 
   13940.370      106.825       82.650        2.286 
   13941.370      106.835       83.107        2.284 
   13942.370      106.470       84.879        2.276 
   13943.370      106.101       82.742        2.267 
   13944.370      106.000       76.449        2.273 
   13945.370      105.993       76.986        2.295 
   13946.370      106.128       80.349        2.315 
   13947.370      106.137       81.216        2.306 
   13948.370      105.920       79.738        2.283 
   13949.370      105.170       76.875        2.289 
   13950.370      105.244       73.299        2.303 
   13951.370      103.661       71.660        2.303 
   13952.370      102.790       71.135        2.301 
   13953.370      103.214       67.854        2.319 
   13954.370      100.954       69.526        2.330 
   13955.370       99.378       72.398        2.326 
   13956.370      103.681       73.195        2.328 
   13957.370      105.743       70.514        2.310 
   13958.370      107.228       70.797        2.283 
   13959.370      108.002       71.542        2.284 
   13960.370      107.069       71.982        2.287 
   13961.370      105.918       74.165        2.289 
   13962.370      109.071       75.128        2.280 
   13963.370      109.979       78.172        2.276 
   13964.370      110.204       78.046        2.289 
   13965.370      110.066       76.116        2.282 
   13966.370      109.421       78.608        2.263 
   13967.370      108.029       78.769        2.269 
   13968.370      107.109       76.632        2.276 
   13969.370      106.757       74.689        2.283 
   13970.370      106.839       74.804        2.310 
   13971.370      106.912       77.722        2.295 
   13972.370      107.322       75.297        2.275 
   13973.370      107.969       76.624        2.299 
   13974.370      107.003       76.265        2.304 
   13975.370      103.876       76.246        2.314 
   13976.370      105.722       76.889        2.314 
   13977.370      107.779       78.738        2.311 
   13978.370      105.876       79.824        2.319 
   13979.370      104.501       82.275        2.317 
   13980.370      103.750       84.442        2.325 
   13981.370      103.890       80.520        2.335 
   13982.370      104.022       76.904        2.323 
   13983.370      104.052       78.587        2.301 
   13984.370      103.995       78.993        2.304 
   13985.370      103.410       80.820        2.313 
   13986.370      102.808       80.463        2.316 
   13987.370      102.632       77.806        2.301 
   13988.370      103.397       77.573        2.294 
   13989.370      104.891       78.377        2.285 
   13990.370      106.159       75.733        2.279 
   13991.370      106.809       72.434        2.280 
   13992.370      106.711       70.905        2.291 
   13993.370      105.649       73.741        2.299 
   13994.370      104.260       73.791        2.303 
   13995.370      104.210       75.711        2.292 
   13996.370      104.088       77.347        2.253 
   13997.370      105.881       78.149        2.224 
   13998.370      106.425       80.388        2.228 
   13999.370      105.859       84.446        2.241 
   14000.370      105.659       84.378        2.263 
   14001.370      105.332       77.931        2.260 
   14002.370      105.306       77.565        2.232 
   14003.370      105.523       78.197        2.233 
   14004.370      106.010       78.132        2.227 
   14005.370      107.437       75.602        2.236 
   14006.370      108.972       76.432        2.247 
   14007.370      110.610       75.683        2.248 
   14008.370      111.569       75.335        2.223 
   14009.370      112.113       79.293        2.243 
   14010.370      111.966       78.933        2.279 
   14011.370      111.391       73.087        2.270 
   14012.370      110.757       68.847        2.252 
   14013.370      110.284       63.227        2.242 
   14014.370      110.208       66.163        2.231 
   14015.370      110.681       74.739        2.243 
   14016.370      111.432       79.653        2.258 
   14017.370      112.070       79.841        2.257 
   14018.370      112.010       82.403        2.264 
   14019.370      111.620       82.201        2.266 
   14020.370      110.916       77.104        2.276 
   14021.370      110.172       69.133        2.269 
   14022.370      109.550       68.580        2.257 
   14023.370      109.449       69.617        2.252 
   14024.370      110.109       70.032        2.242 
   14025.370      110.710       72.528        2.229 
   14026.370      110.906       71.948        2.251 
   14027.370      110.458       71.864        2.258 
   14028.370      107.534       69.894        2.261 
   14029.370      108.562       71.266        2.260 
   14030.370      108.552       73.126        2.260 
   14031.370      108.153       73.415        2.276 
   14032.370      107.484       76.392        2.273 
   14033.370      106.311       78.763        2.278 
   14034.370      105.618       79.336        2.283 
   14035.370      104.363       81.844        2.300 
   14036.370      103.636       80.396        2.298 
   14037.370      103.378       74.748        2.303 
