~Version Information Section
VERS.                 2.0:  CWLS log ASCII Standard -VERSION 2.0 
WRAP.                  NO:  One line per depth step 
DLM .               SPACE:  Column Data Section Delimiter
~Well Information Section 
#MNEM.UNIT       Data Type    Information 
#---------     -----------    -------------------------------
STRT.F           4072.3699: 
STOP.F          19473.3691: 
STEP.F              1.0000: 
NULL.              -999.25: 
COMP.              COMPANY: 
WELL.                 WELL:   MC 854-2
FLD .                FIELD: 
LOC .             LOCATION: 
PROV.             PROVINCE: 
SRVC.      SERVICE COMPANY: 
CTRY.              COUNTRY: 
DATE.             LOG DATE: 
UWI .       UNIQUE WELL ID: 
LATI.             LATITUDE:   
LONG.            LONGITUDE:   
~Curve Information Section 
#MNEM.UNIT      API Code      Curve Description 
#---------     -----------    -------------------------------
DEPTH.FT                 :     1   TVD - 
DT_ED.us/ft              :     2   DT - 
GRD .API                 :     3   GR - 
rhob_merge.g/cc          :     4   RHOB - 
~Parameter Information Section
#MNEM.UNIT         Value      Description  
#---------     -----------    -------------------------------
~A         DEPTH      DT_ED      GRD      rhob_merge
# ...
   11018.370      136.959       49.105        2.137 
   11019.370      137.168       45.791        2.153 
   11020.370      135.578       45.845        2.167 
   11021.370      133.598       47.778        2.174 
   11022.370      132.239       45.889        2.184 
   11023.370      132.363       42.934        2.189 
   11024.370      133.319       43.511        2.185 
   11025.370      133.572       46.831        2.166 
   11026.370      133.436       49.421        2.152 
   11027.370      133.211       50.863        2.153 
   11028.370      133.663       52.199        2.153 
   11029.370      134.370       52.210        2.164 
   11030.370      134.856       50.501        2.168 
   11031.370      135.390       47.321        2.163 
   11032.370      136.673       45.980        2.154 
   11033.370      137.747       46.450        2.156 
   11034.370      137.752       44.406        2.166 
   11035.370      135.861       44.194        2.166 
   11036.370      133.909       42.043        2.169 
   11037.370      132.542       41.862        2.180 
   11038.370      132.220       47.323        2.191 
   11039.370      132.666       51.865        2.186 
   11040.370      133.243       49.915        2.150 
   11041.370      134.263       46.689        2.160 
   11042.370      134.517       48.565        2.168 
   11043.370      135.616       52.576        2.144 
   11044.370      137.514       50.261        2.122 
   11045.370      139.023       51.598        2.114 
   11046.370      138.852       51.621        2.113 
   11047.370      137.816       51.307        2.127 
   11048.370      136.104       51.538        2.144 
   11049.370      135.179       51.781        2.157 
   11050.370      134.745       50.432        2.166 
   11051.370      134.871       50.998        2.161 
   11052.370      135.866       54.536        2.140 
   11053.370      137.675       55.195        2.112 
   11054.370      138.942       50.796        2.099 
   11055.370      137.842       48.970        2.126 
   11056.370      136.942       51.555        2.137 
   11057.370      136.915       50.552        2.123 
   11058.370      136.595       48.234        2.124 
   11059.370      135.736       49.926        2.113 
   11060.370      134.619       50.426        2.109 
   11061.370      133.538       49.562        2.135 
   11062.370      134.598       51.784        2.144 
   11063.370      137.117       51.715        2.119 
   11064.370      137.876       50.023        2.111 
   11065.370      135.845       50.220        2.116 
   11066.370      133.560       48.806        2.130 
   11067.370      133.316       47.811        2.142 
   11068.370      135.002       52.215        2.126 
   11069.370      136.745       54.397        2.118 
   11070.370      136.753       54.736        2.119 
   11071.370      136.133       51.790        2.116 
   11072.370      135.959       52.090        2.118 
   11073.370      135.704       55.039        2.126 
   11074.370      135.274       55.927        2.141 
   11075.370      136.143       53.700        2.135 
   11076.370      136.569       52.191        2.105 
   11077.370      135.904       52.226        2.094 
   11078.370      135.509       52.556        2.091 
   11079.370      135.833       52.872        2.089 
   11080.370      136.191       51.434        2.093 
   11081.370      135.880       49.829        2.110 
   11082.370      134.799       50.859        2.121 
   11083.370      134.411       54.642        2.131 
   11084.370      135.416       55.006        2.134 
   11085.370      136.143       54.156        2.112 
   11086.370      136.202       55.643        2.095 
   11087.370      135.895       56.535        2.102 
   11088.370      134.940       56.182        2.116 
   11089.370      134.095       56.465        2.133 
   11090.370      134.750       56.697        2.133 
   11091.370      136.865       53.641        2.123 
   11092.370      137.537       53.287        2.127 
   11093.370      135.757       51.581        2.150 
   11094.370      133.015       52.722        2.163 
   11095.370      131.216       56.301        2.151 
   11096.370      129.751       61.023        2.139 
   11097.370      132.745       63.520        2.134 
   11098.370      136.560       59.026        2.106 
   11099.370      137.913       57.914        2.092 
   11100.370      136.475       56.021        2.119 
   11101.370      133.237       56.645        2.150 
   11102.370      131.132       60.012        2.158 
   11103.370      131.401       57.508        2.149 
   11104.370      132.782       56.847        2.128 
   11105.370      133.267       54.673        2.115 
   11106.370      131.357       52.504        2.123 
   11107.370      130.144       53.352        2.173 
   11108.370      128.338       54.345        2.217 
   11109.370      127.908       52.205        2.221 
   11110.370      128.249       50.365        2.230 
   11111.370      129.663       54.747        2.217 
   11112.370      131.152       52.100        2.185 
   11113.370      131.124       52.969        2.186 
   11114.370      130.713       57.769        2.178 
   11115.370      130.600       58.043        2.162 
   11116.370      129.953       57.638        2.158 
   11117.370      129.386       59.898        2.161 
   11118.370      129.348       57.552        2.161 
   11119.370      130.408       58.935        2.174 
   11120.370      133.085       55.564        2.159 
   11121.370      133.879       50.843        2.146 
   11122.370      133.294       52.336        2.135 
   11123.370      134.255       50.364        2.125 
   11124.370      133.997       48.295        2.140 
   11125.370      131.872       51.226        2.163 
   11126.370      130.733       53.264        2.170 
   11127.370      131.001       55.985        2.171 
   11128.370      132.058       54.089        2.164 
   11129.370      133.091       51.406        2.161 
   11130.370      132.654       54.022        2.148 
   11131.370      131.290       56.212        2.182 
   11132.370      130.929       55.147        2.192 
   11133.370      132.314       55.669        2.174 
   11134.370      132.252       55.615        2.168 
   11135.370      131.062       55.837        2.166 
   11136.370      128.804       59.931        2.168 
   11137.370      125.911       61.854        2.174 
   11138.370      124.917       59.314        2.186 
   11139.370      124.419       62.031        2.227 
   11140.370      120.164       71.019        2.260 
   11141.370      118.812       75.861        2.278 
   11142.370      121.311       72.975        2.267 
   11143.370      127.527       60.152        2.173 
   11144.370      132.277       52.843        2.139 
   11145.370      132.872       57.234        2.162 
   11146.370      132.707       59.002        2.162 
   11147.370      132.989       55.261        2.162 
   11148.370      132.978       53.188        2.172 
   11149.370      132.870       55.457        2.175 
   11150.370      132.855       55.079        2.178 
   11151.370      133.161       54.238        2.182 
   11152.370      134.079       53.525        2.171 
   11153.370      134.806       52.787        2.152 
   11154.370      134.923       53.389        2.151 
   11155.370      134.036       52.768        2.160 
   11156.370      131.839       53.919        2.170 
   11157.370      129.737       55.543        2.167 
   11158.370      129.745       54.346        2.149 
   11159.370      131.376       55.289        2.130 
   11160.370      133.311       52.326        2.121 
   11161.370      133.215       50.689        2.130 
   11162.370      132.400       50.369        2.137 
   11163.370      132.224       53.105        2.132 
   11164.370      133.180       53.351        2.132 
   11165.370      135.011       50.133        2.132 
   11166.370      136.128       50.811        2.140 
   11167.370      136.070       53.525        2.146 
   11168.370      135.365       52.370        2.143 
