~Version Information Section
VERS.                 2.0:  CWLS log ASCII Standard -VERSION 2.0 
WRAP.                  NO:  One line per depth step 
DLM .               SPACE:  Column Data Section Delimiter
~Well Information Section 
#MNEM.UNIT       Data Type    Information 
#---------     -----------    -------------------------------
STRT.F           4072.3699: 
STOP.F          19473.3691: 
STEP.F              1.0000: 
NULL.              -999.25: 
COMP.              COMPANY: 
WELL.                 WELL:   MC 854-2
FLD .                FIELD: 
LOC .             LOCATION: 
PROV.             PROVINCE: 
SRVC.      SERVICE COMPANY: 
CTRY.              COUNTRY: 
DATE.             LOG DATE: 
UWI .       UNIQUE WELL ID: 
LATI.             LATITUDE:   
LONG.            LONGITUDE:   
~Curve Information Section 
#MNEM.UNIT      API Code      Curve Description 
#---------     -----------    -------------------------------
DEPTH.FT                 :     1   TVD - 
DT_ED.us/ft              :     2   DT - 
GRD .API                 :     3   GR - 
rhob_merge.g/cc          :     4   RHOB - 
~Parameter Information Section
#MNEM.UNIT         Value      Description  
#---------     -----------    -------------------------------
~A         DEPTH      DT_ED      GRD      rhob_merge
# ...
    9206.370      126.313       77.071        2.166 
    9207.370      126.307       80.166        2.157 
    9208.370      126.304       80.740        2.151 
    9209.370      126.299       79.842        2.143 
    9210.370      126.119       78.056        2.145 
    9211.370      126.301       79.152        2.156 
    9212.370      126.576       76.524        2.161 
    9213.370      127.173       77.940        2.168 
    9214.370      127.624       79.308        2.162 
    9215.370      127.725       75.143        2.159 
    9216.370      128.075       73.080        2.168 
    9217.370      128.144       75.077        2.163 
    9218.370      128.714       72.527        2.155 
    9219.370      129.137       72.267        2.145 
    9220.370      130.126       73.843        2.128 
    9221.370      131.697       70.075        2.088 
    9222.370      138.283       61.554        1.994 
    9223.370      142.040       57.367        1.909 
    9224.370      141.958       58.294        1.915 
    9225.370      140.818       61.073        1.944 
    9226.370      140.055       58.695        1.957 
    9227.370      139.668       57.225        1.943 
    9228.370      138.546       58.389        1.933 
    9229.370      138.112       56.174        1.935 
    9230.370      137.993       55.882        1.958 
    9231.370      136.137       66.671        1.990 
    9232.370      134.497       76.309        2.013 
    9233.370      132.701       78.112        2.029 
    9234.370      131.771       76.845        2.022 
    9235.370      131.710       75.353        2.021 
    9236.370      132.141       73.703        2.055 
    9237.370      132.786       74.369        2.081 
    9238.370      133.961       76.658        2.075 
    9239.370      134.457       78.133        2.041 
    9240.370      134.765       80.128        2.022 
    9241.370      134.888       85.004        1.966 
    9242.370      134.884       90.148        1.915 
    9243.370      135.148       91.257        1.899 
    9244.370      135.564       83.642        1.920 
    9245.370      135.812       69.170        1.986 
    9246.370      135.842       72.662        2.050 
    9247.370      135.624       84.370        2.103 
    9248.370      135.399       84.197        2.131 
    9249.370      135.375       81.271        2.147 
    9250.370      134.184       80.492        2.154 
    9251.370      133.372       80.622        2.138 
    9252.370      133.575       78.204        2.117 
    9253.370      133.972       76.003        2.129 
    9254.370      134.419       73.015        2.156 
    9255.370      134.537       73.760        2.164 
    9256.370      133.009       74.782        2.173 
    9257.370      133.942       75.454        2.174 
    9258.370      134.113       71.619        2.068 
    9259.370      134.120       66.062        1.954 
    9260.370      141.345       60.916        1.983 
    9261.370      135.721       63.726        2.010 
    9262.370      135.091       64.763        2.000 
    9263.370      136.084       66.635        2.012 
    9264.370      136.654       66.996        2.012 
    9265.370      135.604       65.823        2.006 
    9266.370      133.979       64.578        1.988 
    9267.370      133.674       59.863        1.961 
    9268.370      134.358       54.635        1.936 
    9269.370      136.147       52.946        1.965 
    9270.370      137.203       52.236        1.994 
    9271.370      139.421       53.143        1.980 
    9272.370      140.351       54.349        1.938 
    9273.370      136.596       53.584        1.895 
    9274.370      133.430       55.961        1.972 
    9275.370      132.744       71.566        2.140 
    9276.370      132.072       82.429        2.206 
    9277.370      131.760       86.008        2.215 
    9278.370      131.617       86.691        2.224 
    9279.370      131.916       84.804        2.203 
    9280.370      133.129       82.392        2.182 
    9281.370      135.142       80.110        2.194 
    9282.370      140.153       80.616        2.198 
    9283.370      145.544       77.440        2.172 
    9284.370      150.817       69.925        2.123 
    9285.370      153.511       58.795        2.102 
    9286.370      153.527       52.865        2.102 
    9287.370      153.075       51.161        2.091 
    9288.370      149.816       50.474        2.082 
    9289.370      145.809       49.378        2.093 
    9290.370      143.615       48.968        2.120 
    9291.370      142.459       52.752        2.146 
    9292.370      137.878       52.979        2.069 
    9293.370      133.213       52.590        2.026 
    9294.370      133.803       56.562        2.036 
    9295.370      137.123       60.491        1.954 
    9296.370      135.768       62.719        1.940 
    9297.370      136.455       64.414        1.980 
    9298.370      144.459       60.697        1.937 
    9299.370      144.774       57.092        1.905 
    9300.370      142.026       57.702        1.935 
    9301.370      135.252       63.284        2.075 
    9302.370      132.442       72.162        2.156 
    9303.370      130.761       77.877        2.157 
    9304.370      129.702       79.100        2.164 
    9305.370      129.667       79.893        2.177 
    9306.370      129.674       78.103        2.185 
    9307.370      129.684       76.834        2.200 
    9308.370      129.693       76.995        2.186 
    9309.370      129.542       74.750        2.175 
    9310.370      129.110       72.901        2.163 
    9311.370      128.734       76.154        2.162 
    9312.370      128.320       71.942        2.162 
    9313.370      127.907       68.169        2.152 
    9314.370      127.589       70.773        2.141 
    9315.370      127.320       74.725        2.147 
    9316.370      127.038       77.224        2.149 
    9317.370      126.811       78.161        2.145 
    9318.370      126.429       79.328        2.146 
    9319.370      125.786       81.762        2.155 
    9320.370      125.373       82.089        2.162 
    9321.370      125.415       82.564        2.178 
    9322.370      125.801       85.000        2.176 
    9323.370      126.050       81.489        2.171 
    9324.370      126.227       79.138        2.173 
    9325.370      126.633       76.549        2.170 
    9326.370      127.077       76.595        2.169 
    9327.370      127.143       79.159        2.178 
    9328.370      127.149       75.937        2.183 
    9329.370      127.039       72.893        2.180 
    9330.370      126.521       73.806        2.170 
    9331.370      125.700       75.382        2.168 
    9332.370      125.163       76.799        2.165 
    9333.370      124.741       77.128        2.161 
    9334.370      124.516       76.996        2.163 
    9335.370      124.449       80.389        2.174 
    9336.370      124.695       83.550        2.183 
    9337.370      125.528       83.578        2.186 
    9338.370      126.419       84.422        2.174 
    9339.370      127.042       88.618        2.172 
    9340.370      127.171       86.634        2.170 
    9341.370      127.180       89.110        2.166 
    9342.370      127.191       89.688        2.151 
    9343.370      127.415       83.850        2.146 
    9344.370      127.424       81.151        2.152 
    9345.370      127.842       82.274        2.143 
    9346.370      128.247       79.608        2.116 
    9347.370      128.754       77.167        2.103 
    9348.370      129.297       77.232        2.114 
    9349.370      129.450       79.329        2.119 
    9350.370      129.499       78.820        2.138 
    9351.370      129.616       75.548        2.146 
    9352.370      129.700       74.013        2.146 
    9353.370      129.723       74.140        2.146 
    9354.370      129.742       75.830        2.144 
    9355.370      129.734       77.228        2.145 
    9356.370      129.756       78.515        2.149 
