~Version Information Section
VERS.                 2.0:  CWLS log ASCII Standard -VERSION 2.0 
WRAP.                  NO:  One line per depth step 
DLM .               SPACE:  Column Data Section Delimiter
~Well Information Section 
#MNEM.UNIT       Data Type    Information 
#---------     -----------    -------------------------------
STRT.F           4072.3699: 
STOP.F          19473.3691: 
STEP.F              1.0000: 
NULL.              -999.25: 
COMP.              COMPANY: 
WELL.                 WELL:   MC 854-2
FLD .                FIELD: 
LOC .             LOCATION: 
PROV.             PROVINCE: 
SRVC.      SERVICE COMPANY: 
CTRY.              COUNTRY: 
DATE.             LOG DATE: 
UWI .       UNIQUE WELL ID: 
LATI.             LATITUDE:   
LONG.            LONGITUDE:   
~Curve Information Section 
#MNEM.UNIT      API Code      Curve Description 
#---------     -----------    -------------------------------
DEPTH.FT                 :     1   TVD - 
DT_ED.us/ft              :     2   DT - 
GRD .API                 :     3   GR - 
rhob_merge.g/cc          :     4   RHOB - 
~Parameter Information Section
#MNEM.UNIT         Value      Description  
#---------     -----------    -------------------------------
~A         DEPTH      DT_ED      GRD      rhob_merge
# ...
   16605.369      101.127       79.539        2.364 
   16606.369      101.330       72.959        2.355 
   16607.369      101.348       74.090        2.347 
   16608.369      101.566       77.252        2.349 
   16609.369      102.167       74.884        2.360 
   16610.369      102.574       74.000        2.367 
   16611.369      102.642       70.979        2.371 
   16612.369      102.660       69.926        2.376 
   16613.369      102.305       73.679        2.332 
   16614.369      101.709       73.975        2.338 
   16615.369      100.650       73.425        2.345 
   16616.369       99.717       76.757        2.342 
   16617.369       98.505       78.778        2.376 
   16618.369       97.273       77.513        2.377 
   16619.369       95.968       75.636        2.373 
   16620.369       94.478       71.431        2.376 
   16621.369       93.323       73.404        2.376 
   16622.369       92.979       77.128        2.381 
   16623.369       93.570       77.749        2.384 
   16624.369       94.569       77.780        2.390 
   16625.369       94.656       75.486        2.396 
   16626.369       94.673       75.467        2.386 
   16627.369       94.922       75.560        2.384 
   16628.369       95.357       74.706        2.412 
   16629.369       95.585       72.008        2.422 
   16630.369       95.528       67.283        2.404 
   16631.369       95.371       70.960        2.389 
   16632.369       94.971       74.264        2.428 
   16633.369       94.401       71.151        2.430 
   16634.369       93.932       69.918        2.392 
   16635.369       93.275       68.439        2.361 
   16636.369       92.246       68.123        2.358 
   16637.369       89.665       67.542        2.376 
   16638.369       87.827       59.449        2.418 
   16639.369       89.711       49.111        2.393 
   16640.369       98.371       44.037        2.257 
   16641.369      102.518       41.139        2.119 
   16642.369      100.439       42.668        2.152 
   16643.369       94.503       45.064        2.191 
   16644.369       87.703       51.060        2.217 
   16645.369       86.808       66.582        2.297 
   16646.369       88.481       68.103        2.431 
   16647.369       94.199       66.342        2.435 
   16648.369       96.597       74.371        2.423 
   16649.369       96.613       74.622        2.414 
   16650.369       96.494       73.221        2.396 
   16651.369       96.265       74.761        2.404 
   16652.369       96.424       74.495        2.408 
   16653.369       96.294       71.827        2.386 
   16654.369       96.700       73.065        2.380 
   16655.369       96.844       76.516        2.383 
   16656.369       97.078       74.386        2.376 
   16657.369       96.912       73.724        2.370 
   16658.369       96.718       76.170        2.371 
   16659.369       96.546       76.044        2.392 
   16660.369       93.707       74.590        2.384 
   16661.369       96.072       75.378        2.367 
   16662.369       96.874       77.065        2.341 
   16663.369       97.108       75.133        2.374 
   16664.369       97.511       71.001        2.374 
   16665.369       97.742       69.004        2.353 
   16666.369       97.395       67.547        2.381 
   16667.369       97.159       73.165        2.400 
   16668.369       97.349       77.427        2.404 
   16669.369       97.778       75.309        2.423 
   16670.369       97.670       72.735        2.438 
   16671.369       97.581       72.592        2.411 
   16672.369       97.249       73.536        2.395 
   16673.369       97.263       74.967        2.402 
   16674.369       97.088       73.514        2.408 
   16675.369       96.699       74.206        2.407 
   16676.369       96.670       74.946        2.386 
   16677.369       96.573       74.591        2.399 
   16678.369       96.630       75.094        2.404 
   16679.369       97.213       72.196        2.410 
   16680.369       98.018       68.837        2.414 
   16681.369       98.173       70.324        2.401 
   16682.369       98.926       70.214        2.385 
   16683.369       99.683       72.914        2.374 
   16684.369      100.247       71.847        2.373 
   16685.369      100.338       71.017        2.395 
   16686.369       99.233       70.595        2.390 
   16687.369      100.047       68.293        2.409 
   16688.369      100.692       68.802        2.342 
   16689.369      101.137       76.122        2.350 
   16690.369      102.059       75.369        2.382 
   16691.369      101.039       70.401        2.388 
   16692.369      100.282       71.586        2.392 
   16693.369      100.014       72.414        2.390 
   16694.369      100.195       73.545        2.399 
   16695.369      100.858       73.182        2.381 
   16696.369      100.648       69.316        2.377 
   16697.369       99.979       67.674        2.396 
   16698.369       99.769       67.825        2.388 
   16699.369      100.176       68.283        2.381 
   16700.369      100.151       72.995        2.403 
   16701.369      100.045       75.558        2.415 
   16702.369      100.264       74.317        2.402 
   16703.369      100.586       76.050        2.404 
   16704.369      101.143       75.775        2.397 
   16705.369      101.678       76.474        2.397 
   16706.369      102.273       76.757        2.404 
   16707.369      102.716       73.727        2.373 
   16708.369      103.123       73.335        2.328 
   16709.369      103.144       75.936        2.322 
   16710.369      102.415       77.866        2.346 
   16711.369      101.199       78.984        2.355 
   16712.369      101.067       75.940        2.383 
   16713.369      101.094       73.608        2.412 
   16714.369      101.495       71.056        2.417 
   16715.369      101.883       70.190        2.402 
   16716.369      102.000       74.027        2.354 
   16717.369      102.028       74.009        2.372 
   16718.369      101.709       71.768        2.393 
   16719.369      101.592       72.906        2.388 
   16720.369      101.380       74.780        2.395 
   16721.369      100.805       80.230        2.397 
   16722.369       98.348       81.562        2.419 
   16723.369       97.327       80.590        2.426 
   16724.369       98.741       94.571        2.420 
   16725.369       98.366       97.515        2.432 
   16726.369       97.623       89.931        2.447 
   16727.369       97.570       86.008        2.447 
   16728.369       97.329       85.531        2.428 
   16729.369       97.085       89.529        2.421 
   16730.369       96.669       90.073        2.410 
   16731.369       96.257       83.108        2.414 
   16732.369       96.297       79.137        2.409 
   16733.369       96.569       72.349        2.404 
   16734.369       94.463       64.765        2.372 
   16735.369       95.269       68.725        2.368 
   16736.369       97.358       72.643        2.409 
   16737.369       99.023       75.510        2.428 
   16738.369       98.696       73.516        2.424 
   16739.369       98.999       67.915        2.411 
   16740.369       99.666       65.041        2.382 
   16741.369       98.156       61.811        2.368 
   16742.369       95.917       58.913        2.381 
   16743.369       95.544       59.792        2.398 
   16744.369       97.864       63.559        2.402 
   16745.369       99.587       67.094        2.397 
   16746.369       99.511       70.370        2.404 
   16747.369      100.073       71.960        2.399 
   16748.369      100.411       67.986        2.406 
   16749.369      100.338       71.145        2.408 
   16750.369       99.788       73.220        2.433 
   16751.369       98.692       67.469        2.420 
   16752.369       97.021       61.072        2.342 
   16753.369      105.214       50.432        2.261 
   16754.369      104.080       43.342        2.223 
   16755.369      104.691       39.891        2.215 
