~Version Information Section
VERS.                 2.0:  CWLS log ASCII Standard -VERSION 2.0 
WRAP.                  NO:  One line per depth step 
DLM .               SPACE:  Column Data Section Delimiter
~Well Information Section 
#MNEM.UNIT       Data Type    Information 
#---------     -----------    -------------------------------
STRT.F           4072.3699: 
STOP.F          19473.3691: 
STEP.F              1.0000: 
NULL.              -999.25: 
COMP.              COMPANY: 
WELL.                 WELL:   MC 854-2
FLD .                FIELD: 
LOC .             LOCATION: 
PROV.             PROVINCE: 
SRVC.      SERVICE COMPANY: 
CTRY.              COUNTRY: 
DATE.             LOG DATE: 
UWI .       UNIQUE WELL ID: 
LATI.             LATITUDE:   
LONG.            LONGITUDE:   
~Curve Information Section 
#MNEM.UNIT      API Code      Curve Description 
#---------     -----------    -------------------------------
DEPTH.FT                 :     1   TVD - 
DT_ED.us/ft              :     2   DT - 
GRD .API                 :     3   GR - 
rhob_merge.g/cc          :     4   RHOB - 
~Parameter Information Section
#MNEM.UNIT         Value      Description  
#---------     -----------    -------------------------------
~A         DEPTH      DT_ED      GRD      rhob_merge
# ...
   17511.369       98.135       65.948        2.403 
   17512.369       98.137       70.111        2.372 
   17513.369       99.745       74.081        2.389 
   17514.369      101.586       78.125        2.365 
   17515.369      101.536       75.952        2.366 
   17516.369      100.575       75.929        2.375 
   17517.369       97.823       73.061        2.383 
   17518.369       95.837       63.931        2.399 
   17519.369       94.905       67.134        2.413 
   17520.369       94.681       76.543        2.388 
   17521.369       93.914       77.993        2.392 
   17522.369       91.509       77.038        2.427 
   17523.369       86.998       74.424        2.445 
   17524.369       86.013       76.521        2.461 
   17525.369       87.326       82.034        2.443 
   17526.369       86.919       82.648        2.414 
   17527.369       88.024       79.028        2.425 
   17528.369       91.958       76.313        2.415 
   17529.369       95.051       76.910        2.423 
   17530.369       93.848       77.815        2.422 
   17531.369       92.237       80.221        2.415 
   17532.369       92.161       77.071        2.431 
   17533.369       92.879       72.244        2.423 
   17534.369       95.843       67.548        2.388 
   17535.369      100.693       66.482        2.362 
   17536.369      103.765       70.153        2.367 
   17537.369      104.148       78.235        2.378 
   17538.369      103.423       83.613        2.375 
   17539.369      103.296       78.028        2.367 
   17540.369      102.936       75.196        2.368 
   17541.369      102.822       75.947        2.372 
   17542.369      102.738       76.290        2.383 
   17543.369      102.652       76.823        2.382 
   17544.369      102.167       75.274        2.375 
   17545.369      102.685       76.307        2.365 
   17546.369      102.926       79.404        2.355 
   17547.369      103.007       78.046        2.373 
   17548.369      103.364       76.545        2.383 
   17549.369      103.752       78.939        2.389 
   17550.369      103.450       79.262        2.406 
   17551.369      100.569       79.618        2.418 
   17552.369      100.551       81.121        2.398 
   17553.369      102.114       81.186        2.382 
   17554.369      103.489       79.849        2.384 
   17555.369      104.739       77.843        2.361 
   17556.369      105.920       76.223        2.347 
   17557.369      106.253       77.448        2.368 
   17558.369      105.521       79.053        2.401 
   17559.369      105.211       80.402        2.387 
   17560.369      104.650       78.487        2.414 
   17561.369      104.463       78.838        2.397 
   17562.369      104.372       81.412        2.383 
   17563.369      103.881       83.934        2.378 
   17564.369      102.724       83.805        2.394 
   17565.369      103.713       83.992        2.443 
   17566.369      103.832       84.467        2.436 
   17567.369      103.265       83.805        2.426 
   17568.369      103.393       83.502        2.408 
   17569.369      104.553       84.397        2.410 
   17570.369      105.805       88.020        2.407 
   17571.369      105.484       87.401        2.382 
   17572.369      103.157       77.608        2.390 
   17573.369      102.549       69.684        2.418 
   17574.369      103.166       66.680        2.417 
   17575.369      101.554       69.326        2.416 
   17576.369      101.165       72.185        2.395 
   17577.369      103.011       75.326        2.360 
   17578.369      105.359       76.247        2.368 
   17579.369      105.262       75.967        2.381 
   17580.369      104.137       74.331        2.383 
   17581.369      104.234       75.508        2.398 
   17582.369      104.654       77.109        2.407 
   17583.369      104.579       77.063        2.409 
   17584.369      100.268       76.732        2.403 
   17585.369       98.541       76.206        2.362 
   17586.369       97.219       74.016        2.302 
   17587.369      100.365       71.267        2.375 
   17588.369      101.480       69.124        2.370 
   17589.369      101.399       71.277        2.388 
   17590.369       99.087       68.736        2.447 
   17591.369       98.348       66.028        2.429 
   17592.369       98.729       63.998        2.414 
   17593.369       98.139       65.327        2.435 
   17594.369       97.333       64.715        2.449 
   17595.369       97.707       61.485        2.450 
   17596.369      100.403       61.759        2.433 
   17597.369      102.093       67.999        2.423 
   17598.369      103.693       74.210        2.399 
   17599.369      104.438       77.848        2.408 
   17600.369      104.343       68.262        2.406 
   17601.369      103.943       60.396        2.418 
   17602.369      101.542       62.794        2.452 
   17603.369       99.907       65.425        2.432 
   17604.369       99.839       65.356        2.385 
   17605.369      100.597       64.921        2.420 
   17606.369      101.914       63.570        2.449 
   17607.369      103.425       61.993        2.444 
   17608.369      105.892       60.254        2.442 
   17609.369      104.249       59.902        2.430 
   17610.369      101.850       62.121        2.420 
   17611.369       98.611       62.174        2.426 
   17612.369       94.269       64.483        2.406 
   17613.369       87.351       67.012        2.314 
   17614.369       80.399       62.684        2.333 
   17615.369      102.362       51.843        2.334 
   17616.369      103.450       44.307        2.250 
   17617.369      103.980       47.835        2.196 
   17618.369      103.869       51.992        2.223 
   17619.369      102.471       55.246        2.263 
   17620.369       78.915       60.630        2.274 
   17621.369       78.097       67.614        2.285 
   17622.369       89.519       73.395        2.316 
   17623.369       98.160       79.119        2.392 
   17624.369      102.574       78.926        2.409 
   17625.369      103.704       77.430        2.421 
   17626.369      103.078       80.873        2.406 
   17627.369      103.121       79.112        2.440 
   17628.369      103.675       77.064        2.464 
   17629.369      101.571       78.159        2.457 
   17630.369      102.426       74.835        2.465 
   17631.369      101.669       70.604        2.474 
   17632.369      100.652       69.970        2.468 
   17633.369       99.604       71.133        2.462 
   17634.369       98.003       75.155        2.459 
   17635.369       97.440       79.192        2.478 
   17636.369       97.878       78.603        2.473 
   17637.369       98.524       78.221        2.469 
   17638.369       98.588       76.312        2.483 
   17639.369       98.437       69.619        2.469 
   17640.369       97.156       66.195        2.461 
   17641.369       95.603       63.920        2.461 
   17642.369       94.545       66.648        2.471 
   17643.369       94.374       64.725        2.489 
   17644.369       94.695       60.380        2.484 
   17645.369       95.251       63.265        2.484 
   17646.369       97.971       69.305        2.436 
   17647.369       99.722       76.583        2.392 
   17648.369       99.722       78.095        2.412 
   17649.369       99.722       75.012        2.357 
   17650.369       99.722       73.327        2.350 
   17651.369       99.969       74.707        2.368 
   17652.369      100.381       76.798        2.366 
   17653.369      101.372       77.119        2.352 
   17654.369      103.126       79.803        2.331 
   17655.369      103.187       81.974        2.354 
   17656.369      103.196       83.519        2.353 
   17657.369      102.819       84.432        2.355 
   17658.369      102.495       81.074        2.358 
   17659.369      102.911       77.327        2.366 
   17660.369      102.624       77.832        2.359 
   17661.369      101.025       76.724        2.386 
