~Version Information Section
VERS.                 2.0:  CWLS log ASCII Standard -VERSION 2.0 
WRAP.                  NO:  One line per depth step 
DLM .               SPACE:  Column Data Section Delimiter
~Well Information Section 
#MNEM.UNIT       Data Type    Information 
#---------     -----------    -------------------------------
STRT.F           4072.3699: 
STOP.F          19473.3691: 
STEP.F              1.0000: 
NULL.              -999.25: 
COMP.              COMPANY: 
WELL.                 WELL:   MC 854-2
FLD .                FIELD: 
LOC .             LOCATION: 
PROV.             PROVINCE: 
SRVC.      SERVICE COMPANY: 
CTRY.              COUNTRY: 
DATE.             LOG DATE: 
UWI .       UNIQUE WELL ID: 
LATI.             LATITUDE:   
LONG.            LONGITUDE:   
~Curve Information Section 
#MNEM.UNIT      API Code      Curve Description 
#---------     -----------    -------------------------------
DEPTH.FT                 :     1   TVD - 
DT_ED.us/ft              :     2   DT - 
GRD .API                 :     3   GR - 
rhob_merge.g/cc          :     4   RHOB - 
~Parameter Information Section
#MNEM.UNIT         Value      Description  
#---------     -----------    -------------------------------
~A         DEPTH      DT_ED      GRD      rhob_merge
# ...
    7394.370      149.857       73.656        2.082 
    7395.370      147.342       75.864        2.080 
    7396.370      147.435       72.156        2.111 
    7397.370      152.266       71.770        2.122 
    7398.370      152.904       69.924        2.077 
    7399.370      153.475       67.871        2.093 
    7400.370      148.698       67.534        2.124 
    7401.370      149.032       66.532        2.113 
    7402.370      151.407       66.653        2.092 
    7403.370      151.575       66.403        2.081 
    7404.370      152.034       66.593        2.068 
    7405.370      153.061       67.921        2.065 
    7406.370      152.443       69.072        2.075 
    7407.370      151.771       68.239        2.084 
    7408.370      151.455       70.087        2.098 
    7409.370      151.310       70.950        2.098 
    7410.370      151.690       72.982        2.097 
    7411.370      151.334       76.918        2.109 
    7412.370      150.395       75.018        2.116 
    7413.370      150.630       72.405        2.113 
    7414.370      152.046       72.675        2.111 
    7415.370      152.113       73.953        2.104 
    7416.370      151.894       73.776        2.097 
    7417.370      152.014       73.914        2.106 
    7418.370      152.374       76.555        2.110 
    7419.370      151.707       78.639        2.109 
    7420.370      150.548       79.112        2.103 
    7421.370      150.023       78.227        2.098 
    7422.370      151.133       76.047        2.097 
    7423.370      152.964       77.776        2.085 
    7424.370      151.925       76.694        2.101 
    7425.370      150.203       74.120        2.110 
    7426.370      150.005       73.222        2.112 
    7427.370      151.676       73.249        2.115 
    7428.370      152.329       75.959        2.106 
    7429.370      151.031       73.318        2.098 
    7430.370      148.630       69.889        2.095 
    7431.370      146.032       69.064        2.116 
    7432.370      144.001       66.210        2.134 
    7433.370      143.611       65.377        2.146 
    7434.370      144.285       67.043        2.156 
    7435.370      144.792       62.325        2.163 
    7436.370      145.546       64.620        2.155 
    7437.370      146.925       70.788        2.141 
    7438.370      150.900       78.110        2.109 
    7439.370      153.368       83.608        2.081 
    7440.370      153.370       82.911        2.077 
    7441.370      152.061       81.402        2.072 
    7442.370      152.400       79.510        2.068 
    7443.370      153.160       74.971        2.072 
    7444.370      153.630       76.343        2.056 
    7445.370      153.257       78.339        2.044 
    7446.370      152.373       76.490        2.047 
    7447.370      152.448       74.163        2.003 
    7448.370      152.316       71.787        2.023 
    7449.370      151.905       73.321        2.064 
    7450.370      150.526       75.162        2.085 
    7451.370      149.288       75.845        2.092 
    7452.370      149.300       74.827        2.095 
    7453.370      149.068       76.025        2.095 
    7454.370      148.494       77.985        2.094 
    7455.370      148.226       75.165        2.108 
    7456.370      149.722       74.866        2.113 
    7457.370      152.283       76.087        2.083 
    7458.370      150.538       80.683        2.062 
    7459.370      146.817       80.447        2.099 
    7460.370      145.556       80.146        2.119 
    7461.370      147.989       78.158        2.115 
    7462.370      150.277       75.161        2.115 
    7463.370      150.611       71.800        2.134 
    7464.370      151.062       68.344        2.129 
    7465.370      151.042       65.486        2.113 
    7466.370      150.345       69.692        2.113 
    7467.370      151.077       67.907        2.110 
    7468.370      151.658       67.718        2.104 
    7469.370      151.350       71.730        2.106 
    7470.370      150.719       73.099        2.123 
    7471.370      150.725       73.028        2.132 
    7472.370      151.631       73.581        2.104 
    7473.370      151.800       70.321        2.084 
    7474.370      151.777       69.399        2.091 
    7475.370      152.303       72.839        2.077 
    7476.370      150.281       73.174        2.096 
    7477.370      149.290       72.218        2.118 
    7478.370      151.982       71.813        2.096 
    7479.370      153.175       78.085        2.077 
    7480.370      153.426       78.692        2.079 
    7481.370      152.478       73.268        2.109 
    7482.370      151.291       69.426        2.134 
    7483.370      150.621       68.297        2.141 
    7484.370      150.566       73.353        2.150 
    7485.370      150.801       76.385        2.144 
    7486.370      151.833       75.539        2.116 
    7487.370      152.942       75.059        2.064 
    7488.370      153.879       71.641        2.024 
    7489.370      153.955       70.100        2.042 
    7490.370      153.680       73.278        2.074 
    7491.370      152.540       75.188        2.092 
    7492.370      150.177       74.881        2.087 
    7493.370      148.420       74.916        2.097 
    7494.370      149.336       72.957        2.116 
    7495.370      149.206       71.424        2.137 
    7496.370      149.459       69.523        2.130 
    7497.370      151.333       67.718        2.129 
    7498.370      155.614       65.825        2.159 
    7499.370      157.823       62.590        2.139 
    7500.370      158.646       61.367        2.085 
    7501.370      158.793       65.827        2.029 
    7502.370      158.583       70.391        2.019 
    7503.370      158.827       72.084        2.024 
    7504.370      160.246       62.814        2.025 
    7505.370      171.681       54.791        2.059 
    7506.370      171.599       54.672        2.093 
    7507.370      161.713       63.193        1.997 
    7508.370      158.970       70.323        1.986 
    7509.370      154.589       72.240        2.011 
    7510.370      152.068       74.288        2.002 
    7511.370      150.953       73.494        2.038 
    7512.370      150.865       74.860        2.071 
    7513.370      151.035       73.721        2.095 
    7514.370      151.696       71.188        2.117 
    7515.370      151.696       70.544        2.122 
    7516.370      151.663       72.292        2.106 
    7517.370      151.037       76.343        2.091 
    7518.370      151.640       74.930        2.099 
    7519.370      151.861       72.557        2.082 
    7520.370      152.643       76.010        2.075 
    7521.370      153.787       76.462        2.069 
    7522.370      154.177       70.644        2.064 
    7523.370      153.622       66.741        2.059 
    7524.370      152.331       66.640        2.077 
    7525.370      152.749       65.809        2.131 
    7526.370      154.101       65.475        2.155 
    7527.370      157.309       59.767        2.126 
    7528.370      160.815       59.498        2.103 
    7529.370      162.146       63.683        2.102 
    7530.370      161.954       66.375        2.106 
    7531.370      156.630       66.818        2.106 
    7532.370      151.805       68.225        2.095 
    7533.370      152.536       71.421        2.086 
    7534.370      153.203       72.469        2.079 
    7535.370      152.399       72.913        2.085 
    7536.370      151.555       73.292        2.102 
    7537.370      151.181       75.017        2.126 
    7538.370      151.341       76.463        2.139 
    7539.370      151.993       78.348        2.137 
    7540.370      152.607       81.656        2.131 
    7541.370      152.619       80.030        2.118 
    7542.370      152.241       76.671        2.110 
    7543.370      151.759       77.603        2.105 
    7544.370      151.462       77.664        2.110 
