~Version Information Section
VERS.                 2.0:  CWLS log ASCII Standard -VERSION 2.0 
WRAP.                  NO:  One line per depth step 
DLM .               SPACE:  Column Data Section Delimiter
~Well Information Section 
#MNEM.UNIT       Data Type    Information 
#---------     -----------    -------------------------------
STRT.F           4072.3699: 
STOP.F          19473.3691: 
STEP.F              1.0000: 
NULL.              -999.25: 
COMP.              COMPANY: 
WELL.                 WELL:   MC 854-2
FLD .                FIELD: 
LOC .             LOCATION: 
PROV.             PROVINCE: 
SRVC.      SERVICE COMPANY: 
CTRY.              COUNTRY: 
DATE.             LOG DATE: 
UWI .       UNIQUE WELL ID: 
LATI.             LATITUDE:   
LONG.            LONGITUDE:   
~Curve Information Section 
#MNEM.UNIT      API Code      Curve Description 
#---------     -----------    -------------------------------
DEPTH.FT                 :     1   TVD - 
DT_ED.us/ft              :     2   DT - 
GRD .API                 :     3   GR - 
rhob_merge.g/cc          :     4   RHOB - 
~Parameter Information Section
#MNEM.UNIT         Value      Description  
#---------     -----------    -------------------------------
~A         DEPTH      DT_ED      GRD      rhob_merge
# ...
   12981.370      120.132       34.589        2.156 
   12982.370      120.149       37.816        2.149 
   12983.370      119.733       39.585        2.142 
   12984.370      118.422       39.546        2.180 
   12985.370      117.793       40.723        2.184 
   12986.370      117.914       40.988        2.157 
   12987.370      118.614       38.550        2.172 
   12988.370      119.135       37.412        2.142 
   12989.370      118.848       37.302        2.159 
   12990.370      117.787       37.343        2.158 
   12991.370      116.458       35.587        2.163 
   12992.370      116.021       32.592        2.178 
   12993.370      115.943       33.970        2.185 
   12994.370      115.107       38.594        2.183 
   12995.370      113.727       40.247        2.188 
   12996.370      113.523       41.428        2.176 
   12997.370      114.450       51.561        2.203 
   12998.370      114.079       65.497        2.225 
   12999.370      114.696       72.657        2.224 
   13000.370      113.438       77.387        2.229 
   13001.370      112.165       79.811        2.239 
   13002.370      108.897       82.318        2.247 
   13003.370      109.307       78.496        2.237 
   13004.370      111.437       73.368        2.236 
   13005.370      112.588       73.017        2.235 
   13006.370      112.815       72.549        2.244 
   13007.370      112.189       74.555        2.259 
   13008.370      112.322       77.445        2.250 
   13009.370      111.829       80.273        2.243 
   13010.370      111.193       81.218        2.247 
   13011.370      110.405       76.016        2.259 
   13012.370      109.966       74.915        2.267 
   13013.370      109.886       74.580        2.273 
   13014.370      109.659       72.782        2.276 
   13015.370      109.445       76.621        2.272 
   13016.370      108.596       78.926        2.267 
   13017.370      108.412       78.266        2.260 
   13018.370      110.387       74.306        2.281 
   13019.370      112.505       70.120        2.285 
   13020.370      112.697       62.739        2.277 
   13021.370      114.259       47.537        2.221 
   13022.370      114.733       39.992        2.157 
   13023.370      116.128       38.299        2.144 
   13024.370      119.547       41.559        2.149 
   13025.370      121.725       45.372        2.156 
   13026.370      117.833       44.111        2.151 
   13027.370      114.650       47.233        2.164 
   13028.370      113.950       49.501        2.171 
   13029.370      116.113       45.338        2.163 
   13030.370      119.461       42.308        2.157 
   13031.370      121.042       40.896        2.154 
   13032.370      120.797       35.782        2.184 
   13033.370      120.231       35.210        2.193 
   13034.370      119.609       37.938        2.194 
   13035.370      120.316       38.962        2.175 
   13036.370      120.165       41.508        2.147 
   13037.370      119.350       43.158        2.153 
   13038.370      119.229       43.527        2.156 
   13039.370      120.286       43.681        2.148 
   13040.370      121.450       42.282        2.159 
   13041.370      121.210       39.574        2.163 
   13042.370      120.500       37.601        2.172 
   13043.370      120.873       39.464        2.148 
   13044.370      121.176       40.289        2.146 
   13045.370      120.533       40.425        2.178 
   13046.370      120.551       40.339        2.193 
   13047.370      121.805       43.314        2.179 
   13048.370      122.931       43.431        2.153 
   13049.370      124.185       39.560        2.127 
   13050.370      124.421       39.758        2.108 
   13051.370      124.649       40.411        2.113 
   13052.370      123.728       38.780        2.128 
   13053.370      122.670       37.698        2.169 
   13054.370      122.690       37.075        2.196 
   13055.370      122.626       36.995        2.179 
   13056.370      122.597       36.908        2.154 
   13057.370      122.277       36.608        2.143 
   13058.370      121.646       39.048        2.166 
   13059.370      121.622       38.628        2.163 
   13060.370      122.343       40.468        2.157 
   13061.370      122.255       38.151        2.175 
   13062.370      120.810       36.463        2.184 
   13063.370      120.174       37.738        2.188 
   13064.370      120.958       39.543        2.173 
   13065.370      121.437       37.914        2.164 
   13066.370      121.899       37.592        2.180 
   13067.370      121.589       34.659        2.176 
   13068.370      120.918       34.839        2.158 
   13069.370      121.271       36.276        2.144 
   13070.370      121.089       35.993        2.157 
   13071.370      120.250       37.008        2.165 
   13072.370      120.660       38.039        2.166 
   13073.370      122.307       38.065        2.139 
   13074.370      122.065       38.470        2.183 
   13075.370      121.055       37.968        2.220 
   13076.370      121.069       37.505        2.164 
   13077.370      121.003       38.171        2.151 
   13078.370      120.986       38.158        2.160 
   13079.370      121.385       41.176        2.157 
   13080.370      122.145       41.298        2.161 
   13081.370      123.171       40.948        2.138 
   13082.370      123.917       38.617        2.126 
   13083.370      123.741       36.271        2.124 
   13084.370      123.064       36.433        2.130 
   13085.370      122.692       34.663        2.154 
   13086.370      122.131       32.696        2.162 
   13087.370      121.504       37.458        2.156 
   13088.370      122.261       42.742        2.126 
   13089.370      123.867       39.847        2.157 
   13090.370      122.587       39.050        2.174 
   13091.370      120.197       41.180        2.165 
   13092.370      120.197       45.624        2.153 
   13093.370      120.386       45.414        2.162 
   13094.370      120.543       40.309        2.150 
   13095.370      120.977       37.057        2.131 
   13096.370      119.694       37.069        2.152 
   13097.370      114.549       44.225        2.202 
   13098.370      110.459       47.523        2.266 
   13099.370      109.237       46.288        2.297 
   13100.370      110.071       49.197        2.319 
   13101.370      113.046       49.129        2.278 
   13102.370      114.574       42.928        2.182 
   13103.370      113.116       41.607        2.149 
   13104.370      107.140       40.500        2.175 
   13105.370      107.480       47.306        2.221 
   13106.370      113.267       58.239        2.224 
   13107.370      117.817       65.924        2.212 
   13108.370      117.047       67.878        2.210 
   13109.370      113.754       61.445        2.209 
   13110.370      110.115       59.109        2.233 
   13111.370      112.246       66.486        2.257 
   13112.370      112.424       71.284        2.254 
   13113.370      112.516       71.388        2.240 
   13114.370      109.106       71.935        2.233 
   13115.370      108.907       69.381        2.228 
   13116.370      109.862       71.152        2.249 
   13117.370      111.809       75.646        2.230 
   13118.370      114.490       76.033        2.195 
   13119.370      115.266       79.091        2.211 
   13120.370      114.948       79.381        2.229 
   13121.370      113.198       76.150        2.236 
   13122.370      112.065       71.693        2.238 
   13123.370      111.693       68.062        2.246 
   13124.370      111.242       65.198        2.226 
   13125.370      111.878       60.014        2.269 
   13126.370      113.819       61.967        2.239 
   13127.370      115.870       67.962        2.210 
   13128.370      116.551       71.545        2.190 
   13129.370      116.431       71.932        2.204 
   13130.370      114.900       63.881        2.240 
   13131.370      111.498       54.401        2.307 
