~Version Information Section
VERS.                 2.0:  CWLS log ASCII Standard -VERSION 2.0 
WRAP.                  NO:  One line per depth step 
DLM .               SPACE:  Column Data Section Delimiter
~Well Information Section 
#MNEM.UNIT       Data Type    Information 
#---------     -----------    -------------------------------
STRT.F           4072.3699: 
STOP.F          19473.3691: 
STEP.F              1.0000: 
NULL.              -999.25: 
COMP.              COMPANY: 
WELL.                 WELL:   MC 854-2
FLD .                FIELD: 
LOC .             LOCATION: 
PROV.             PROVINCE: 
SRVC.      SERVICE COMPANY: 
CTRY.              COUNTRY: 
DATE.             LOG DATE: 
UWI .       UNIQUE WELL ID: 
LATI.             LATITUDE:   
LONG.            LONGITUDE:   
~Curve Information Section 
#MNEM.UNIT      API Code      Curve Description 
#---------     -----------    -------------------------------
DEPTH.FT                 :     1   TVD - 
DT_ED.us/ft              :     2   DT - 
GRD .API                 :     3   GR - 
rhob_merge.g/cc          :     4   RHOB - 
~Parameter Information Section
#MNEM.UNIT         Value      Description  
#---------     -----------    -------------------------------
~A         DEPTH      DT_ED      GRD      rhob_merge
# ...
   14793.370      106.603       75.369        2.395 
   14794.370      108.099       81.013        2.366 
   14795.370      107.719       82.040        2.367 
   14796.370      107.248       80.548        2.391 
   14797.370      107.266       82.270        2.407 
   14798.370      107.087       80.258        2.389 
   14799.370      107.086       82.699        2.376 
   14800.370      107.269       83.964        2.371 
   14801.370      107.522       76.910        2.366 
   14802.370      107.565       75.979        2.363 
   14803.370      107.590       82.177        2.358 
   14804.370      107.616       78.482        2.357 
   14805.370      107.559       78.377        2.340 
   14806.370      107.584       74.567        2.367 
   14807.370      107.444       73.395        2.370 
   14808.370      107.262       78.436        2.372 
   14809.370      106.540       75.005        2.380 
   14810.370      106.004       71.417        2.385 
   14811.370      105.972       72.492        2.382 
   14812.370      105.997       75.078        2.372 
   14813.370      106.119       73.694        2.398 
   14814.370      106.349       74.962        2.396 
   14815.370      106.556       79.854        2.375 
   14816.370      106.610       77.451        2.341 
   14817.370      106.638       77.982        2.364 
   14818.370      106.663       78.237        2.393 
   14819.370      106.688       76.741        2.390 
   14820.370      106.677       75.820        2.362 
   14821.370      106.703       77.228        2.379 
   14822.370      106.945       74.224        2.388 
   14823.370      107.346       75.300        2.378 
   14824.370      107.748       76.521        2.356 
   14825.370      108.345       77.039        2.354 
   14826.370      108.405       78.016        2.373 
   14827.370      108.431       77.374        2.365 
   14828.370      108.458       79.792        2.363 
   14829.370      108.664       81.395        2.349 
   14830.370      109.034       75.964        2.381 
   14831.370      109.308       73.896        2.388 
   14832.370      109.334       72.557        2.375 
   14833.370      109.190       73.050        2.367 
   14834.370      108.105       72.877        2.357 
   14835.370      106.177       73.569        2.360 
   14836.370      103.733       72.927        2.403 
   14837.370       99.459       69.992        2.429 
   14838.370       98.314       70.682        2.400 
   14839.370       97.650       73.258        2.386 
   14840.370       97.473       72.077        2.407 
   14841.370       97.565       70.291        2.414 
   14842.370       97.973       67.722        2.397 
   14843.370       98.299       71.293        2.379 
   14844.370       96.129       71.742        2.382 
   14845.370       96.333       68.153        2.397 
   14846.370       97.360       64.999        2.391 
   14847.370       99.636       63.249        2.391 
   14848.370      101.114       65.203        2.367 
   14849.370      102.113       66.427        2.370 
   14850.370      102.174       70.079        2.400 
   14851.370      103.042       72.033        2.401 
   14852.370      108.627       73.548        2.403 
   14853.370      110.534       76.452        2.349 
   14854.370      111.385       75.483        2.315 
   14855.370      111.636       71.947        2.316 
   14856.370      111.865       72.349        2.300 
   14857.370      111.778       74.149        2.276 
   14858.370      111.738       72.854        2.272 
   14859.370      111.757       72.836        2.258 
   14860.370      111.673       70.731        2.266 
   14861.370      111.881       67.016        2.260 
   14862.370      112.359       70.807        2.241 
   14863.370      112.816       77.239        2.241 
   14864.370      112.996       73.377        2.253 
   14865.370      112.062       68.887        2.224 
   14866.370      111.022       70.045        2.223 
   14867.370      110.360       68.181        2.254 
   14868.370      110.163       67.029        2.269 
   14869.370      110.001       70.183        2.277 
   14870.370      109.627       69.262        2.280 
   14871.370      109.535       67.793        2.273 
   14872.370      109.011       70.384        2.264 
   14873.370      108.157       68.743        2.252 
   14874.370      107.960       66.036        2.239 
   14875.370      107.715       64.557        2.223 
   14876.370      107.874       67.789        2.257 
   14877.370      108.056       69.748        2.237 
   14878.370      108.339       68.667        2.256 
   14879.370      108.359       70.559        2.324 
   14880.370      108.392       72.064        2.301 
   14881.370      108.410       70.227        2.247 
   14882.370      108.427       67.477        2.259 
   14883.370      108.444       69.375        2.276 
   14884.370      108.464       69.929        2.240 
   14885.370      108.503       71.303        2.234 
   14886.370      107.399       72.659        2.282 
   14887.370      108.254       73.551        2.282 
   14888.370      108.931       73.461        2.264 
   14889.370      109.378       76.307        2.253 
   14890.370      109.452       73.089        2.232 
   14891.370      109.372       69.140        2.240 
   14892.370      109.387       71.255        2.252 
   14893.370      109.204       74.241        2.279 
   14894.370      106.600       71.709        2.288 
   14895.370      104.596       68.506        2.267 
   14896.370      107.769       70.550        2.276 
   14897.370      108.494       70.438        2.268 
   14898.370      108.557       68.826        2.253 
   14899.370      108.415       67.280        2.268 
   14900.370      107.721       71.725        2.263 
   14901.370      106.815       72.565        2.266 
   14902.370      105.808       72.457        2.281 
   14903.370      105.725       74.947        2.276 
   14904.370      105.688       72.393        2.255 
   14905.370      105.964       70.467        2.262 
   14906.370      106.279       71.679        2.341 
   14907.370      107.347       71.773        2.351 
   14908.370      108.836       72.083        2.345 
   14909.370      106.957       68.190        2.327 
   14910.370      109.868       65.834        2.311 
   14911.370      110.762       67.040        2.243 
   14912.370      110.132       67.411        2.258 
   14913.370      108.434       65.974        2.289 
   14914.370      108.067       66.259        2.272 
   14915.370      108.082       68.824        2.260 
   14916.370      107.609       67.819        2.274 
   14917.370      108.047       65.593        2.296 
   14918.370      107.866       65.725        2.284 
   14919.370      107.513       69.172        2.288 
   14920.370      103.281       71.542        2.305 
   14921.370      101.719       70.606        2.309 
   14922.370      104.288       72.637        2.308 
   14923.370      105.875       70.660        2.276 
   14924.370      106.182       71.497        2.304 
   14925.370      106.080       78.169        2.333 
   14926.370      105.909       75.180        2.334 
   14927.370      105.670       72.893        2.334 
   14928.370      105.271       76.155        2.330 
   14929.370      104.689       74.005        2.334 
   14930.370      103.729       73.889        2.322 
   14931.370      103.063       75.884        2.341 
   14932.370      102.596       75.509        2.341 
   14933.370      102.028       72.865        2.338 
   14934.370      101.780       70.037        2.330 
   14935.370      101.716       74.011        2.325 
   14936.370      101.675       74.384        2.322 
   14937.370      101.316       74.044        2.302 
   14938.370      101.099       72.895        2.308 
   14939.370      100.927       72.272        2.327 
   14940.370      100.881       73.084        2.341 
   14941.370      100.898       72.150        2.333 
   14942.370      100.914       76.409        2.328 
   14943.370      100.834       80.839        2.319 
