~Version Information Section
VERS.                 2.0:  CWLS log ASCII Standard -VERSION 2.0 
WRAP.                  NO:  One line per depth step 
DLM .               SPACE:  Column Data Section Delimiter
~Well Information Section 
#MNEM.UNIT       Data Type    Information 
#---------     -----------    -------------------------------
STRT.F           4072.3699: 
STOP.F          19473.3691: 
STEP.F              1.0000: 
NULL.              -999.25: 
COMP.              COMPANY: 
WELL.                 WELL:   MC 854-2
FLD .                FIELD: 
LOC .             LOCATION: 
PROV.             PROVINCE: 
SRVC.      SERVICE COMPANY: 
CTRY.              COUNTRY: 
DATE.             LOG DATE: 
UWI .       UNIQUE WELL ID: 
LATI.             LATITUDE:   
LONG.            LONGITUDE:   
~Curve Information Section 
#MNEM.UNIT      API Code      Curve Description 
#---------     -----------    -------------------------------
DEPTH.FT                 :     1   TVD - 
DT_ED.us/ft              :     2   DT - 
GRD .API                 :     3   GR - 
rhob_merge.g/cc          :     4   RHOB - 
~Parameter Information Section
#MNEM.UNIT         Value      Description  
#---------     -----------    -------------------------------
~A         DEPTH      DT_ED      GRD      rhob_merge
# ...
    5582.370     -999.250       36.840        1.918 
    5583.370     -999.250       36.167        1.918 
    5584.370     -999.250       35.095        1.918 
    5585.370     -999.250       33.710        1.918 
    5586.370     -999.250       34.531        1.919 
    5587.370     -999.250       36.768        1.919 
    5588.370     -999.250       35.819        1.919 
    5589.370     -999.250       34.574        1.919 
    5590.370     -999.250       35.413        1.919 
    5591.370     -999.250       35.892        1.919 
    5592.370     -999.250       36.528        1.919 
    5593.370     -999.250       37.835        1.919 
    5594.370     -999.250       37.130        1.920 
    5595.370     -999.250       35.545        1.920 
    5596.370     -999.250       36.042        1.920 
    5597.370     -999.250       35.284        1.920 
    5598.370     -999.250       34.409        1.920 
    5599.370     -999.250       33.198        1.920 
    5600.370     -999.250       36.986        1.920 
    5601.370     -999.250       37.680        1.920 
    5602.370     -999.250       36.832        1.921 
    5603.370     -999.250       36.084        1.921 
    5604.370     -999.250       36.668        1.921 
    5605.370     -999.250       35.615        1.921 
    5606.370     -999.250       32.376        1.921 
    5607.370     -999.250       31.443        1.921 
    5608.370     -999.250       35.246        1.921 
    5609.370     -999.250       36.402        1.921 
    5610.370     -999.250       36.543        1.922 
    5611.370     -999.250       37.539        1.922 
    5612.370     -999.250       38.647        1.922 
    5613.370     -999.250       37.915        1.922 
    5614.370     -999.250       37.088        1.922 
    5615.370     -999.250       40.680        1.922 
    5616.370     -999.250       41.700        1.922 
    5617.370     -999.250       39.474        1.922 
    5618.370     -999.250       37.236        1.923 
    5619.370     -999.250       35.693        1.923 
    5620.370     -999.250       34.676        1.923 
    5621.370     -999.250       34.578        1.923 
    5622.370     -999.250       36.572        1.923 
    5623.370     -999.250       38.000        1.923 
    5624.370     -999.250       37.244        1.923 
    5625.370     -999.250       38.074        1.923 
    5626.370     -999.250       37.359        1.924 
    5627.370     -999.250       35.648        1.924 
    5628.370     -999.250       35.516        1.924 
    5629.370     -999.250       35.613        1.924 
    5630.370     -999.250       37.156        1.924 
    5631.370     -999.250       37.506        1.924 
    5632.370     -999.250       38.660        1.924 
    5633.370     -999.250       37.050        1.925 
    5634.370     -999.250       36.541        1.925 
    5635.370     -999.250       35.815        1.925 
    5636.370     -999.250       35.934        1.925 
    5637.370     -999.250       37.887        1.925 
    5638.370     -999.250       36.292        1.925 
    5639.370     -999.250       34.196        1.925 
    5640.370     -999.250       33.514        1.925 
    5641.370     -999.250       34.321        1.926 
    5642.370     -999.250       35.526        1.926 
    5643.370     -999.250       36.332        1.926 
    5644.370     -999.250       37.086        1.926 
    5645.370     -999.250       37.264        1.926 
    5646.370     -999.250       36.573        1.926 
    5647.370     -999.250       34.548        1.926 
    5648.370     -999.250       33.571        1.926 
    5649.370     -999.250       35.805        1.927 
    5650.370     -999.250       35.506        1.927 
    5651.370     -999.250       34.852        1.927 
    5652.370     -999.250       35.656        1.927 
    5653.370     -999.250       34.839        1.927 
    5654.370     -999.250       33.838        1.927 
    5655.370     -999.250       33.197        1.927 
    5656.370     -999.250       34.551        1.927 
    5657.370     -999.250       35.630        1.928 
    5658.370     -999.250       33.331        1.928 
    5659.370     -999.250       31.254        1.928 
    5660.370     -999.250       31.442        1.928 
    5661.370     -999.250       32.893        1.928 
    5662.370     -999.250       34.524        1.928 
    5663.370     -999.250       34.403        1.928 
    5664.370     -999.250       31.733        1.928 
    5665.370     -999.250       31.264        1.929 
    5666.370     -999.250       32.076        1.929 
    5667.370     -999.250       32.393        1.929 
    5668.370     -999.250       33.148        1.929 
    5669.370     -999.250       36.032        1.929 
    5670.370     -999.250       36.439        1.929 
    5671.370     -999.250       37.247        1.929 
    5672.370     -999.250       39.483        1.929 
    5673.370     -999.250       38.261        1.930 
    5674.370     -999.250       36.802        1.930 
    5675.370     -999.250       36.023        1.930 
    5676.370     -999.250       35.290        1.930 
    5677.370     -999.250       35.766        1.930 
    5678.370     -999.250       36.611        1.930 
    5679.370     -999.250       37.953        1.930 
    5680.370     -999.250       38.802        1.930 
    5681.370     -999.250       35.168        1.931 
    5682.370     -999.250       32.738        1.931 
    5683.370     -999.250       31.434        1.931 
    5684.370     -999.250       30.314        1.931 
    5685.370     -999.250       32.971        1.931 
    5686.370     -999.250       34.110        1.931 
    5687.370     -999.250       32.385        1.931 
    5688.370     -999.250       30.211        1.931 
    5689.370     -999.250       30.086        1.932 
    5690.370     -999.250       30.246        1.932 
    5691.370     -999.250       29.810        1.932 
    5692.370     -999.250       28.244        1.932 
    5693.370     -999.250       26.898        1.932 
    5694.370     -999.250       27.337        1.932 
    5695.370     -999.250       30.281        1.932 
    5696.370     -999.250       33.107        1.932 
    5697.370     -999.250       33.802        1.933 
    5698.370     -999.250       32.712        1.933 
    5699.370     -999.250       33.488        1.933 
    5700.370     -999.250       37.089        1.933 
    5701.370     -999.250       37.250        1.933 
    5702.370     -999.250       32.843        1.933 
    5703.370     -999.250       31.181        1.933 
    5704.370     -999.250       29.926        1.933 
    5705.370     -999.250       28.306        1.934 
    5706.370     -999.250       27.841        1.934 
    5707.370     -999.250       28.248        1.934 
    5708.370     -999.250       29.596        1.934 
    5709.370     -999.250       28.970        1.934 
    5710.370     -999.250       27.151        1.934 
    5711.370     -999.250       29.483        1.934 
    5712.370     -999.250       32.294        1.934 
    5713.370     -999.250       34.232        1.935 
    5714.370     -999.250       33.362        1.935 
    5715.370     -999.250       30.211        1.935 
    5716.370     -999.250       29.699        1.935 
    5717.370     -999.250       31.212        1.935 
    5718.370     -999.250       33.304        1.935 
    5719.370     -999.250       33.201        1.935 
    5720.370     -999.250       32.468        1.935 
    5721.370     -999.250       31.597        1.936 
    5722.370     -999.250       30.951        1.936 
    5723.370     -999.250       30.941        1.936 
    5724.370     -999.250       31.298        1.936 
    5725.370     -999.250       32.979        1.936 
    5726.370     -999.250       32.316        1.936 
    5727.370     -999.250       31.573        1.936 
    5728.370     -999.250       32.952        1.936 
    5729.370     -999.250       35.324        1.937 
    5730.370     -999.250       38.143        1.937 
    5731.370     -999.250       40.628        1.937 
    5732.370     -999.250       42.856        1.937 
