~Version Information Section
VERS.                 2.0:  CWLS log ASCII Standard -VERSION 2.0 
WRAP.                  NO:  One line per depth step 
DLM .               SPACE:  Column Data Section Delimiter
~Well Information Section 
#MNEM.UNIT       Data Type    Information 
#---------     -----------    -------------------------------
STRT.F           4072.3699: 
STOP.F          19473.3691: 
STEP.F              1.0000: 
NULL.              -999.25: 
COMP.              COMPANY: 
WELL.                 WELL:   MC 854-2
FLD .                FIELD: 
LOC .             LOCATION: 
PROV.             PROVINCE: 
SRVC.      SERVICE COMPANY: 
CTRY.              COUNTRY: 
DATE.             LOG DATE: 
UWI .       UNIQUE WELL ID: 
LATI.             LATITUDE:   
LONG.            LONGITUDE:   
~Curve Information Section 
#MNEM.UNIT      API Code      Curve Description 
#---------     -----------    -------------------------------
DEPTH.FT                 :     1   TVD - 
DT_ED.us/ft              :     2   DT - 
GRD .API                 :     3   GR - 
rhob_merge.g/cc          :     4   RHOB - 
~Parameter Information Section
#MNEM.UNIT         Value      Description  
#---------     -----------    -------------------------------
~A         DEPTH      DT_ED      GRD      rhob_merge
# ...
   18417.369       88.409       67.602        2.461 
   18418.369       90.190       66.366        2.423 
   18419.369       93.000       59.861        2.415 
   18420.369       96.283       50.249        2.381 
   18421.369       98.651       35.023        2.285 
   18422.369       98.149       33.713        2.221 
   18423.369       91.891       41.853        2.237 
   18424.369       89.181       48.378        2.269 
   18425.369       89.899       50.903        2.273 
   18426.369       90.557       51.725        2.303 
   18427.369       92.816       53.635        2.280 
   18428.369       95.497       63.300        2.336 
   18429.369       99.955       74.853        2.333 
   18430.369      100.651       78.009        2.352 
   18431.369       99.205       73.857        2.329 
   18432.369       99.426       75.346        2.347 
   18433.369       99.329       80.435        2.392 
   18434.369       99.034       81.058        2.369 
   18435.369      100.057       80.437        2.379 
   18436.369      101.241       81.313        2.413 
   18437.369      102.115       79.233        2.390 
   18438.369      102.544       76.792        2.365 
   18439.369      102.715       79.627        2.386 
   18440.369      102.419       82.177        2.419 
   18441.369      101.638       82.510        2.420 
   18442.369      101.175       84.138        2.427 
   18443.369      100.768       81.834        2.403 
   18444.369      100.145       80.097        2.402 
   18445.369       99.838       80.158        2.397 
   18446.369       99.421       78.555        2.405 
   18447.369       99.377       76.483        2.399 
   18448.369       98.926       77.909        2.414 
   18449.369       99.878       81.539        2.429 
   18450.369      100.171       81.129        2.414 
   18451.369      100.246       81.653        2.400 
   18452.369       99.462       77.987        2.421 
   18453.369       99.066       73.905        2.434 
   18454.369      100.197       75.422        2.426 
   18455.369      101.494       75.549        2.431 
   18456.369      101.775       75.434        2.408 
   18457.369      101.783       74.812        2.385 
   18458.369      102.120       76.360        2.405 
   18459.369      102.010       80.323        2.480 
   18460.369      102.051       81.655        2.500 
   18461.369      100.281       80.415        2.492 
   18462.369       96.195       75.076        2.487 
   18463.369       95.163       57.243        2.486 
   18464.369       96.478       46.453        2.485 
   18465.369       96.184       56.042        2.489 
   18466.369       97.197       69.716        2.489 
   18467.369       98.953       75.097        2.488 
   18468.369       96.460       63.842        2.497 
   18469.369       95.595       54.744        2.491 
   18470.369       94.520       49.623        2.488 
   18471.369       94.774       50.504        2.513 
   18472.369       98.138       55.844        2.508 
   18473.369       96.146       61.621        2.448 
   18474.369       99.286       66.682        2.393 
   18475.369      100.598       69.539        2.358 
   18476.369       97.704       64.807        2.385 
   18477.369       95.160       58.352        2.430 
   18478.369       99.217       60.689        2.453 
   18479.369      100.042       67.719        2.400 
   18480.369       97.047       70.528        2.402 
   18481.369       97.368       72.062        2.415 
   18482.369       97.651       74.919        2.375 
   18483.369      100.466       74.618        2.346 
   18484.369      100.786       74.292        2.390 
   18485.369       98.757       76.202        2.432 
   18486.369       96.960       74.612        2.445 
   18487.369       94.427       67.892        2.443 
   18488.369       95.149       68.268        2.414 
   18489.369       98.807       75.131        2.374 
   18490.369      102.429       79.782        2.353 
   18491.369      103.051       83.030        2.381 
   18492.369      103.408       83.327        2.401 
   18493.369      103.607       86.507        2.380 
   18494.369      103.871       86.217        2.381 
   18495.369      104.427       81.769        2.402 
   18496.369      104.299       79.675        2.377 
   18497.369      103.956       79.760        2.385 
   18498.369      102.234       76.898        2.401 
   18499.369       96.926       69.553        2.457 
   18500.369       88.948       63.301        2.475 
   18501.369       99.404       52.169        2.392 
   18502.369      103.852       42.856        2.267 
   18503.369      105.291       45.943        2.250 
   18504.369       92.079       64.066        2.348 
   18505.369       92.211       81.998        2.414 
   18506.369       97.403       84.100        2.433 
   18507.369       99.486       80.327        2.441 
   18508.369       99.502       75.252        2.426 
   18509.369       99.520       76.456        2.433 
   18510.369       99.283       79.299        2.425 
   18511.369       98.197       81.073        2.424 
   18512.369       98.240       79.820        2.431 
   18513.369       99.565       78.414        2.436 
   18514.369      100.270       79.758        2.428 
   18515.369       99.370       76.938        2.424 
   18516.369       98.792       74.302        2.407 
   18517.369       98.736       77.000        2.437 
   18518.369       98.417       81.861        2.454 
   18519.369      100.402       82.707        2.455 
   18520.369      100.855       83.521        2.440 
   18521.369      101.796       84.216        2.437 
   18522.369      102.252       86.013        2.423 
   18523.369      102.197       87.018        2.417 
   18524.369      101.820       83.324        2.428 
   18525.369      101.531       85.079        2.436 
   18526.369      101.019       84.373        2.418 
   18527.369      100.839       82.512        2.411 
   18528.369      100.888       79.032        2.423 
   18529.369      101.277       78.057        2.442 
   18530.369      101.495       80.365        2.431 
   18531.369      101.832       81.986        2.422 
   18532.369      102.709       80.988        2.424 
   18533.369      102.132       81.281        2.431 
   18534.369      102.221       86.384        2.443 
   18535.369      102.806       86.474        2.434 
   18536.369      102.934       84.597        2.414 
   18537.369      102.635       85.464        2.400 
   18538.369      102.769       82.667        2.413 
   18539.369      104.028       73.677        2.370 
   18540.369      104.505       67.686        2.259 
   18541.369      103.949       59.532        2.293 
   18542.369      103.636       43.491        2.279 
   18543.369      104.136       38.065        2.192 
   18544.369      103.776       40.487        2.184 
   18545.369      102.785       57.854        2.230 
   18546.369      101.745       69.442        2.332 
   18547.369      101.325       73.451        2.379 
   18548.369      102.245       69.739        2.364 
   18549.369      103.454       61.119        2.288 
   18550.369      102.800       71.104        2.359 
   18551.369      100.525       77.791        2.412 
   18552.369       99.239       77.170        2.388 
   18553.369      102.652       75.722        2.368 
   18554.369      105.274       77.069        2.385 
   18555.369      105.367       79.148        2.402 
   18556.369      104.211       81.914        2.408 
   18557.369      103.495       82.977        2.408 
   18558.369      103.728       81.987        2.419 
   18559.369      104.819       80.912        2.405 
   18560.369      106.569       76.096        2.378 
   18561.369      107.773       74.884        2.362 
   18562.369      108.231       77.268        2.364 
   18563.369      108.067       80.617        2.374 
   18564.369      107.645       82.112        2.383 
   18565.369      107.237       79.958        2.377 
   18566.369      107.031       80.499        2.373 
   18567.369      107.055       82.044        2.369 
