~Version Information Section
VERS.                 2.0:  CWLS log ASCII Standard -VERSION 2.0 
WRAP.                  NO:  One line per depth step 
DLM .               SPACE:  Column Data Section Delimiter
~Well Information Section 
#MNEM.UNIT       Data Type    Information 
#---------     -----------    -------------------------------
STRT.F           4072.3699: 
STOP.F          19473.3691: 
STEP.F              1.0000: 
NULL.              -999.25: 
COMP.              COMPANY: 
WELL.                 WELL:   MC 854-2
FLD .                FIELD: 
LOC .             LOCATION: 
PROV.             PROVINCE: 
SRVC.      SERVICE COMPANY: 
CTRY.              COUNTRY: 
DATE.             LOG DATE: 
UWI .       UNIQUE WELL ID: 
LATI.             LATITUDE:   
LONG.            LONGITUDE:   
~Curve Information Section 
#MNEM.UNIT      API Code      Curve Description 
#---------     -----------    -------------------------------
DEPTH.FT                 :     1   TVD - 
DT_ED.us/ft              :     2   DT - 
GRD .API                 :     3   GR - 
rhob_merge.g/cc          :     4   RHOB - 
~Parameter Information Section
#MNEM.UNIT         Value      Description  
#---------     -----------    -------------------------------
~A         DEPTH      DT_ED      GRD      rhob_merge
# ...
   15699.370       98.366       64.954        2.399 
   15700.370      100.485       66.344        2.394 
   15701.370      102.466       67.631        2.335 
   15702.370      102.717       67.061        2.309 
   15703.370      101.320       66.549        2.362 
   15704.370       99.845       67.587        2.391 
   15705.370       99.051       68.840        2.383 
   15706.370       98.576       69.393        2.376 
   15707.370       98.580       67.868        2.388 
   15708.370       98.694       67.989        2.379 
   15709.370       99.064       68.115        2.367 
   15710.370       99.285       68.024        2.357 
   15711.370       99.943       66.515        2.346 
   15712.370      100.978       63.821        2.369 
   15713.370      101.725       61.210        2.378 
   15714.370      101.822       61.302        2.347 
   15715.370      101.750       64.898        2.338 
   15716.370      101.791       69.499        2.340 
   15717.370      101.938       68.264        2.342 
   15718.370      102.187       66.759        2.326 
   15719.370      102.513       67.361        2.321 
   15720.370      102.845       66.839        2.348 
   15721.370      103.100       63.549        2.332 
   15722.370      103.353       68.348        2.305 
   15723.370      103.608       69.207        2.278 
   15724.370      103.695       68.604        2.345 
   15725.370      103.289       65.403        2.356 
   15726.370      102.746       67.251        2.338 
   15727.370      101.558       72.788        2.325 
   15728.370       97.158       70.211        2.313 
   15729.370       97.871       68.919        2.290 
   15730.370       98.869       68.504        2.301 
   15731.370       98.367       68.937        2.326 
   15732.370       98.359       70.826        2.325 
   15733.370       98.403       71.144        2.321 
   15734.370       98.445       69.954        2.326 
   15735.370       98.521       63.493        2.309 
   15736.370       98.575       68.411        2.304 
   15737.370       98.987       75.200        2.309 
   15738.370       99.243       68.756        2.386 
   15739.370       99.504       67.740        2.369 
   15740.370      100.008       72.977        2.318 
   15741.370      100.077       65.031        2.322 
   15742.370      100.121       59.667        2.356 
   15743.370      100.164       64.164        2.368 
   15744.370      100.208       65.337        2.366 
   15745.370      100.288       65.177        2.381 
   15746.370      100.531       68.643        2.396 
   15747.370      101.136       69.055        2.375 
   15748.370      102.330       68.959        2.342 
   15749.370      103.156       67.504        2.328 
   15750.370      102.401       67.021        2.367 
   15751.370      102.058       69.290        2.369 
   15752.370      101.246       71.372        2.360 
   15753.370      100.092       71.540        2.360 
   15754.370       99.281       67.597        2.344 
   15755.370       99.090       66.481        2.341 
   15756.370       99.060       70.607        2.344 
   15757.370       98.553       70.824        2.360 
   15758.370       98.094       66.707        2.364 
   15759.370       97.847       67.439        2.357 
   15760.370       97.955       68.251        2.349 
   15761.370       97.982       69.117        2.375 
   15762.370       98.006       66.691        2.378 
   15763.370       98.033       63.672        2.376 
   15764.370       98.058       62.156        2.357 
   15765.370       98.209       65.983        2.351 
   15766.370       98.054       63.305        2.384 
   15767.370       98.044       66.017        2.384 
   15768.370       98.104       67.225        2.378 
   15769.370       98.504       66.173        2.352 
   15770.370       99.144       65.958        2.355 
   15771.370       99.997       65.215        2.350 
   15772.370      100.290       66.481        2.370 
   15773.370      100.429       67.819        2.382 
   15774.370       99.650       68.718        2.366 
   15775.370       98.974       67.731        2.381 
   15776.370       98.387       62.888        2.390 
   15777.370       98.188       62.937        2.387 
   15778.370       98.475       63.570        2.382 
   15779.370       99.454       64.607        2.373 
   15780.370      100.506       69.103        2.349 
   15781.370      100.885       69.387        2.331 
   15782.370      100.911       66.756        2.362 
   15783.370      100.685       68.236        2.366 
   15784.370      100.119       64.442        2.387 
   15785.370       99.608       61.842        2.390 
   15786.370       99.014       65.467        2.392 
   15787.370       98.936       67.302        2.374 
   15788.370       98.963       67.807        2.384 
   15789.370       99.365       71.810        2.383 
   15790.370       99.691       70.095        2.370 
   15791.370       99.716       68.461        2.376 
   15792.370       99.741       64.406        2.392 
   15793.370      100.056       61.390        2.403 
   15794.370      100.308       63.764        2.407 
   15795.370      100.715       65.496        2.388 
   15796.370      100.849       67.504        2.377 
   15797.370      100.385       69.084        2.388 
   15798.370       99.450       70.020        2.420 
   15799.370       99.052       69.109        2.433 
   15800.370       99.819       69.366        2.411 
   15801.370      100.024       62.552        2.367 
   15802.370      100.267       58.663        2.355 
   15803.370      101.075       66.335        2.372 
   15804.370      102.092       68.063        2.363 
   15805.370      103.271       68.143        2.361 
   15806.370      103.682       59.942        2.376 
   15807.370      104.381       55.813        2.372 
   15808.370      102.874       61.798        2.320 
   15809.370      101.642       69.671        2.364 
   15810.370      101.602       77.933        2.362 
   15811.370      101.628       75.830        2.367 
   15812.370      101.653       69.727        2.342 
   15813.370      101.960       76.558        2.323 
   15814.370      102.779       78.311        2.314 
   15815.370      103.697       70.931        2.344 
   15816.370      103.036       64.020        2.403 
   15817.370      101.293       63.430        2.397 
   15818.370       99.731       64.564        2.363 
   15819.370       98.784       63.333        2.376 
   15820.370       98.725       64.599        2.348 
   15821.370       99.041       66.552        2.345 
   15822.370       99.380       72.885        2.350 
   15823.370      100.105       73.826        2.327 
   15824.370      101.305       72.681        2.312 
   15825.370      103.046       73.228        2.328 
   15826.370      104.440       71.530        2.348 
   15827.370      105.023       71.524        2.334 
   15828.370      104.652       72.308        2.344 
   15829.370      103.540       73.877        2.341 
   15830.370      102.708       69.993        2.339 
   15831.370      102.215       66.148        2.343 
   15832.370      102.027       71.363        2.343 
   15833.370      102.040       75.557        2.338 
   15834.370      102.078       71.485        2.336 
   15835.370      102.114       73.299        2.318 
   15836.370      102.139       77.667        2.306 
   15837.370      102.166       76.082        2.282 
   15838.370      102.448       75.343        2.302 
   15839.370      102.647       72.575        2.323 
   15840.370      102.830       70.878        2.316 
   15841.370      102.784       70.245        2.302 
   15842.370      102.257       68.965        2.326 
   15843.370      101.869       69.470        2.329 
   15844.370      101.481       70.303        2.355 
   15845.370      100.765       73.360        2.373 
   15846.370       99.930       73.278        2.384 
   15847.370       99.382       72.425        2.357 
   15848.370       98.911       72.389        2.336 
   15849.370       98.327       71.555        2.331 
