~Version Information Section
VERS.                 2.0:  CWLS log ASCII Standard -VERSION 2.0 
WRAP.                  NO:  One line per depth step 
DLM .               SPACE:  Column Data Section Delimiter
~Well Information Section 
#MNEM.UNIT       Data Type    Information 
#---------     -----------    -------------------------------
STRT.F           4072.3699: 
STOP.F          19473.3691: 
STEP.F              1.0000: 
NULL.              -999.25: 
COMP.              COMPANY: 
WELL.                 WELL:   MC 854-2
FLD .                FIELD: 
LOC .             LOCATION: 
PROV.             PROVINCE: 
SRVC.      SERVICE COMPANY: 
CTRY.              COUNTRY: 
DATE.             LOG DATE: 
UWI .       UNIQUE WELL ID: 
LATI.             LATITUDE:   
LONG.            LONGITUDE:   
~Curve Information Section 
#MNEM.UNIT      API Code      Curve Description 
#---------     -----------    -------------------------------
DEPTH.FT                 :     1   TVD - 
DT_ED.us/ft              :     2   DT - 
GRD .API                 :     3   GR - 
rhob_merge.g/cc          :     4   RHOB - 
~Parameter Information Section
#MNEM.UNIT         Value      Description  
#---------     -----------    -------------------------------
~A         DEPTH      DT_ED      GRD      rhob_merge
# ...
   19323.369      100.277       81.702        2.431 
   19324.369       97.051       79.860        2.466 
   19325.369       94.466       70.665        2.490 
   19326.369       95.011       68.710        2.488 
   19327.369       94.409       77.117        2.500 
   19328.369       96.372       87.809        2.496 
   19329.369       97.493       88.034        2.476 
   19330.369       97.920       87.251        2.462 
   19331.369       98.158       86.253        2.423 
   19332.369       98.435       84.118        2.371 
   19333.369       98.452       82.971        2.437 
   19334.369       97.273       87.783        2.468 
   19335.369       96.782       91.112        2.454 
   19336.369       98.235       89.481        2.453 
   19337.369      101.389       87.134        2.423 
   19338.369      102.271       80.848        2.386 
   19339.369      102.598       78.505        2.359 
   19340.369      102.777       77.273        2.346 
   19341.369      102.892       72.226        2.288 
   19342.369      102.567       63.154        2.257 
   19343.369      101.989       54.847        2.226 
   19344.369      101.287       49.925        2.211 
   19345.369      100.973       52.745        2.224 
   19346.369      101.246       60.438        2.245 
   19347.369      101.028       62.179        2.256 
   19348.369      100.740       62.300        2.271 
   19349.369      100.791       59.979        2.281 
   19350.369      101.256       59.490        2.257 
   19351.369      102.572       59.004        2.246 
   19352.369      101.079       56.621        2.257 
   19353.369       98.986       56.326        2.384 
   19354.369       98.188       74.395        2.448 
   19355.369       98.393       82.923        2.437 
   19356.369       97.732       86.040        2.461 
   19357.369       98.066       92.115        2.460 
   19358.369       99.725       88.661        2.455 
   19359.369      100.221       78.617        2.355 
   19360.369       98.614       56.586        2.216 
   19361.369       97.362       36.721        2.233 
   19362.369       97.306       32.381        2.249 
   19363.369       97.465       37.419        2.222 
   19364.369       96.949       43.479        2.246 
   19365.369       96.207       43.292        2.251 
   19366.369       96.808       43.943        2.230 
   19367.369       97.575       41.551        2.237 
   19368.369       97.464       39.286        2.208 
   19369.369       96.994       41.551        2.196 
   19370.369       96.790       40.714        2.200 
   19371.369       96.873       38.531        2.214 
   19372.369       97.184       39.137        2.220 
   19373.369       97.095       40.540        2.238 
   19374.369       96.764       41.189        2.235 
   19375.369       97.321       41.058        2.227 
   19376.369       98.432       39.963        2.222 
   19377.369       98.921       37.993        2.221 
   19378.369       98.900       39.378        2.206 
   19379.369       99.245       41.315        2.200 
   19380.369       99.959       42.714        2.206 
   19381.369       99.648       42.645        2.221 
   19382.369       98.525       42.702        2.202 
   19383.369       98.102       43.811        2.208 
   19384.369       98.484       44.465        2.213 
   19385.369       99.310       45.287        2.209 
   19386.369       99.789       47.523        2.211 
   19387.369       99.318       50.389        2.209 
   19388.369       98.608       51.625        2.196 
   19389.369       98.367       52.670        2.211 
   19390.369       97.771       53.553        2.221 
   19391.369       96.791       51.430        2.231 
   19392.369       95.650       49.730        2.228 
   19393.369       94.249       49.919        2.227 
   19394.369       94.207       48.606        2.229 
   19395.369       95.504       49.822        2.216 
   19396.369       95.118       49.537        2.212 
   19397.369       94.959       48.484        2.230 
   19398.369       95.501       48.917        2.246 
   19399.369       96.762       48.011        2.216 
   19400.369     -999.250       47.465        2.206 
   19401.369     -999.250       52.147        2.233 
   19402.369     -999.250       53.125        2.239 
   19403.369     -999.250       52.786        2.272 
   19404.369     -999.250       52.691        2.316 
   19405.369     -999.250       52.674        2.336 
   19406.369     -999.250       52.741        2.382 
   19407.369     -999.250       52.660        2.330 
   19408.369     -999.250       52.573        2.321 
   19409.369     -999.250       52.627        2.332 
   19410.369     -999.250       52.671        2.268 
   19411.369     -999.250       52.733        2.287 
   19412.369     -999.250       52.736        2.294 
   19413.369     -999.250       52.674        2.279 
   19414.369     -999.250       52.593        2.279 
   19415.369     -999.250       52.554        2.291 
   19416.369     -999.250       52.604        2.274 
   19417.369     -999.250       52.710        2.268 
   19418.369     -999.250       52.742        2.272 
   19419.369     -999.250       52.758        2.270 
   19420.369     -999.250       52.727        2.264 
   19421.369     -999.250       52.629        2.255 
   19422.369     -999.250       52.488        2.260 
   19423.369     -999.250       52.487        2.262 
   19424.369     -999.250       52.597        2.267 
   19425.369     -999.250       52.636        2.271 
   19426.369     -999.250       52.626        2.278 
   19427.369     -999.250       52.645        2.272 
   19428.369     -999.250       52.562        2.256 
   19429.369     -999.250       52.569        2.226 
   19430.369     -999.250       52.488        2.215 
   19431.369     -999.250       52.433        2.214 
   19432.369     -999.250       52.537        2.214 
   19433.369     -999.250       52.546        2.213 
   19434.369     -999.250       52.537        2.213 
   19435.369     -999.250       52.570        2.214 
   19436.369     -999.250       52.552        2.213 
   19437.369     -999.250       52.458        2.213 
   19438.369     -999.250       52.462        2.213 
   19439.369     -999.250       52.406        2.213 
   19440.369     -999.250       52.308        2.214 
   19441.369     -999.250       52.352        2.214 
   19442.369     -999.250       52.361        2.214 
   19443.369     -999.250       52.271        2.214 
   19444.369     -999.250       52.403        2.214 
   19445.369     -999.250       52.389        2.214 
   19446.369     -999.250       52.478        2.214 
   19447.369     -999.250       52.662        2.214 
   19448.369     -999.250       52.690        2.214 
   19449.369     -999.250       52.666        2.214 
   19450.369     -999.250       52.574        2.214 
   19451.369     -999.250       52.669        2.214 
   19452.369     -999.250       52.584        2.214 
   19453.369     -999.250       52.616        2.214 
   19454.369     -999.250       52.647        2.214 
   19455.369     -999.250       52.821        2.214 
   19456.369     -999.250       52.948        2.214 
   19457.369     -999.250       52.979        2.215 
   19458.369     -999.250       52.963        2.215 
   19459.369     -999.250       52.813        2.215 
   19460.369     -999.250       52.784        2.215 
   19461.369     -999.250       52.795        2.215 
   19462.369     -999.250       52.731        2.215 
   19463.369     -999.250       52.760        2.215 
   19464.369     -999.250       52.853        2.215 
   19465.369     -999.250       52.862        2.215 
   19466.369     -999.250       52.806        2.216 
   19467.369     -999.250       52.734        2.216 
   19468.369     -999.250     -999.250        2.227 
   19469.369     -999.250     -999.250        2.258 
   19470.369     -999.250     -999.250        2.288 
   19471.369     -999.250     -999.250        2.319 
   19472.369     -999.250     -999.250        2.350 
   19473.369     -999.250     -999.250        2.381 
