~Version Information Section
VERS.                 2.0:  CWLS log ASCII Standard -VERSION 2.0 
WRAP.                  NO:  One line per depth step 
DLM .               SPACE:  Column Data Section Delimiter
~Well Information Section 
#MNEM.UNIT       Data Type    Information 
#---------     -----------    -------------------------------
STRT.F           4072.3699: 
STOP.F          19473.3691: 
STEP.F              1.0000: 
NULL.              -999.25: 
COMP.              COMPANY: 
WELL.                 WELL:   MC 854-2
FLD .                FIELD: 
LOC .             LOCATION: 
PROV.             PROVINCE: 
SRVC.      SERVICE COMPANY: 
CTRY.              COUNTRY: 
DATE.             LOG DATE: 
UWI .       UNIQUE WELL ID: 
LATI.             LATITUDE:   
LONG.            LONGITUDE:   
~Curve Information Section 
#MNEM.UNIT      API Code      Curve Description 
#---------     -----------    -------------------------------
DEPTH.FT                 :     1   TVD - 
DT_ED.us/ft              :     2   DT - 
GRD .API                 :     3   GR - 
rhob_merge.g/cc          :     4   RHOB - 
~Parameter Information Section
#MNEM.UNIT         Value      Description  
#---------     -----------    -------------------------------
~A         DEPTH      DT_ED      GRD      rhob_merge
# ...
    6488.370      172.402       51.680        2.006 
    6489.370      171.533       51.677        2.010 
    6490.370      171.191       54.509        2.011 
    6491.370      171.174       54.777        2.017 
    6492.370      171.068       55.270        2.022 
    6493.370      170.559       54.754        2.028 
    6494.370      170.591       52.588        2.039 
    6495.370      171.023       50.359        2.045 
    6496.370      170.536       51.899        2.036 
    6497.370      170.224       54.955        2.018 
    6498.370      170.490       55.659        2.027 
    6499.370      170.112       55.845        2.027 
    6500.370      168.404       55.981        2.014 
    6501.370      167.236       58.966        1.984 
    6502.370      167.563       58.756        1.971 
    6503.370      168.692       58.914        1.965 
    6504.370      169.469       56.383        1.967 
    6505.370      170.049       52.600        1.994 
    6506.370      170.029       52.356        1.970 
    6507.370      169.447       53.095        1.985 
    6508.370      168.944       54.122        1.996 
    6509.370      168.812       52.368        2.007 
    6510.370      169.699       50.721        2.007 
    6511.370      170.313       54.953        2.006 
    6512.370      169.742       59.664        2.023 
    6513.370      168.874       59.387        1.996 
    6514.370      167.896       62.247        1.976 
    6515.370      166.465       67.855        1.978 
    6516.370      166.300       67.365        1.995 
    6517.370      166.947       65.576        1.987 
    6518.370      168.477       65.128        1.970 
    6519.370      169.851       65.140        1.867 
    6520.370      170.017       63.758        1.774 
    6521.370      169.859       63.671        1.785 
    6522.370      169.707       65.742        1.889 
    6523.370      169.719       64.699        1.981 
    6524.370      169.580       64.001        1.978 
    6525.370      169.276       62.666        1.986 
    6526.370      169.642       58.557        2.010 
    6527.370      169.536       54.966        2.015 
    6528.370      169.646       55.580        2.019 
    6529.370      169.866       56.766        2.008 
    6530.370      170.401       56.897        2.030 
    6531.370      170.927       56.210        2.040 
    6532.370      171.452       52.353        2.027 
    6533.370      171.589       52.939        2.025 
    6534.370      171.674       54.039        2.014 
    6535.370      171.927       53.969        1.987 
    6536.370      170.872       55.728        1.972 
    6537.370      170.357       56.911        1.992 
    6538.370      170.114       56.753        2.018 
    6539.370      169.902       56.075        2.020 
    6540.370      169.819       55.954        2.000 
    6541.370      169.387       59.788        2.000 
    6542.370      168.554       66.160        2.003 
    6543.370      167.400       65.853        1.908 
    6544.370      166.400       67.375        1.742 
    6545.370      166.179       66.329        1.793 
    6546.370      166.289       64.488        1.856 
    6547.370      166.499       68.907        1.887 
    6548.370      167.090       67.715        1.917 
    6549.370      168.172       63.742        1.986 
    6550.370      168.872       61.106        2.020 
    6551.370      169.055       57.710        1.996 
    6552.370      168.720       54.020        1.953 
    6553.370      168.709       55.014        1.928 
    6554.370      169.077       56.314        1.939 
    6555.370      169.010       55.972        1.971 
    6556.370      168.265       58.060        1.999 
    6557.370      167.946       59.562        2.025 
    6558.370      168.157       58.986        2.029 
    6559.370      167.662       62.682        2.031 
    6560.370      166.227       63.195        2.029 
    6561.370      165.791       60.539        2.037 
    6562.370      166.163       60.902        2.046 
    6563.370      166.642       59.853        2.039 
    6564.370      167.099       57.935        2.026 
    6565.370      167.184       58.570        2.008 
    6566.370      167.392       59.413        2.001 
    6567.370      167.471       55.272        2.026 
    6568.370      167.747       51.225        2.053 
    6569.370      168.616       55.008        2.039 
    6570.370      167.833       54.731        2.020 
    6571.370      167.750       52.514        2.019 
    6572.370      168.449       52.607        2.014 
    6573.370      169.684       53.363        2.004 
    6574.370      170.200       53.932        2.011 
    6575.370      168.832       56.696        2.022 
    6576.370      166.950       59.720        2.026 
    6577.370      165.057       60.922        2.014 
    6578.370      164.609       64.607        2.009 
    6579.370      165.606       61.985        2.018 
    6580.370      167.073       58.707        2.038 
    6581.370      168.147       57.501        2.040 
    6582.370      168.919       55.459        2.019 
    6583.370      169.043       54.554        2.003 
    6584.370      168.902       54.720        2.025 
    6585.370      168.696       55.122        2.035 
    6586.370      167.892       55.404        2.037 
    6587.370      167.631       55.393        2.036 
    6588.370      167.958       56.807        2.043 
    6589.370      166.286       56.196        2.063 
    6590.370      165.029       53.550        2.055 
    6591.370      165.561       58.635        2.037 
    6592.370      165.869       60.280        2.013 
    6593.370      165.341       59.164        1.986 
    6594.370      165.397       59.643        1.975 
    6595.370      165.572       62.147        2.005 
    6596.370      165.581       64.262        2.039 
    6597.370      165.526       64.486        2.030 
    6598.370      165.234       63.820        2.025 
    6599.370      165.263       64.271        2.049 
    6600.370      165.686       59.994        2.061 
    6601.370      165.761       56.124        2.065 
    6602.370      165.491       55.844        2.054 
    6603.370      165.067       58.836        2.047 
    6604.370      164.587       57.527        2.047 
    6605.370      163.913       55.326        2.026 
    6606.370      163.666       56.957        2.031 
    6607.370      164.292       58.295        2.038 
    6608.370      165.118       58.788        2.038 
    6609.370      165.453       57.226        2.023 
    6610.370      165.692       54.837        1.994 
    6611.370      165.695       54.030        1.942 
    6612.370      165.503       54.679        1.949 
    6613.370      165.730       55.263        1.906 
    6614.370      166.120       53.467        1.844 
    6615.370      166.849       52.598        1.954 
    6616.370      166.819       54.399        1.991 
    6617.370      165.988       57.412        2.018 
    6618.370      164.936       60.447        2.028 
    6619.370      163.713       61.871        2.039 
    6620.370      161.642       65.623        2.048 
    6621.370      160.157       69.740        2.048 
    6622.370      160.799       70.012        2.042 
    6623.370      162.086       67.479        2.046 
    6624.370      163.077       64.392        2.039 
    6625.370      163.770       62.083        2.033 
    6626.370      164.256       62.064        2.032 
    6627.370      164.153       61.484        2.046 
    6628.370      164.121       61.237        2.056 
    6629.370      164.144       64.020        2.061 
    6630.370      163.939       65.418        2.067 
    6631.370      163.611       62.548        2.065 
    6632.370      163.369       59.581        2.063 
    6633.370      163.166       58.460        2.057 
    6634.370      163.349       56.221        2.045 
    6635.370      163.417       53.156        2.026 
    6636.370      164.080       51.625        2.011 
    6637.370      164.919       51.815        2.016 
    6638.370      165.191       53.526        1.978 
