~Version Information Section
VERS.                 2.0:  CWLS log ASCII Standard -VERSION 2.0 
WRAP.                  NO:  One line per depth step 
DLM .               SPACE:  Column Data Section Delimiter
~Well Information Section 
#MNEM.UNIT       Data Type    Information 
#---------     -----------    -------------------------------
STRT.F           4072.3699: 
STOP.F          19473.3691: 
STEP.F              1.0000: 
NULL.              -999.25: 
COMP.              COMPANY: 
WELL.                 WELL:   MC 854-2
FLD .                FIELD: 
LOC .             LOCATION: 
PROV.             PROVINCE: 
SRVC.      SERVICE COMPANY: 
CTRY.              COUNTRY: 
DATE.             LOG DATE: 
UWI .       UNIQUE WELL ID: 
LATI.             LATITUDE:   
LONG.            LONGITUDE:   
~Curve Information Section 
#MNEM.UNIT      API Code      Curve Description 
#---------     -----------    -------------------------------
DEPTH.FT                 :     1   TVD - 
DT_ED.us/ft              :     2   DT - 
GRD .API                 :     3   GR - 
rhob_merge.g/cc          :     4   RHOB - 
~Parameter Information Section
#MNEM.UNIT         Value      Description  
#---------     -----------    -------------------------------
~A         DEPTH      DT_ED      GRD      rhob_merge
# ...
   11924.370      111.735       87.041        2.340 
   11925.370      113.438       86.740        2.342 
   11926.370      116.877       80.344        2.322 
   11927.370      119.325       72.377        2.263 
   11928.370      120.356       64.644        2.216 
   11929.370      120.123       59.786        2.196 
   11930.370      119.555       56.495        2.186 
   11931.370      119.978       53.809        2.204 
   11932.370      121.222       54.733        2.237 
   11933.370      121.864       49.920        2.211 
   11934.370      120.271       46.690        2.197 
   11935.370      117.670       47.998        2.202 
   11936.370      115.530       48.577        2.219 
   11937.370      114.377       45.380        2.233 
   11938.370      114.624       46.396        2.234 
   11939.370      116.057       49.847        2.220 
   11940.370      118.013       50.963        2.223 
   11941.370      119.367       51.637        2.214 
   11942.370      119.324       52.862        2.211 
   11943.370      118.452       56.671        2.234 
   11944.370      117.015       70.309        2.270 
   11945.370      115.054       81.067        2.292 
   11946.370      115.227       85.476        2.287 
   11947.370      114.359       83.919        2.265 
   11948.370      113.085       81.871        2.253 
   11949.370      113.093       81.872        2.260 
   11950.370      115.294       79.529        2.268 
   11951.370      118.369       80.455        2.261 
   11952.370      118.852       72.873        2.223 
   11953.370      119.860       60.730        2.211 
   11954.370      119.520       57.776        2.221 
   11955.370      118.818       56.188        2.218 
   11956.370      119.101       53.958        2.212 
   11957.370      117.913       55.189        2.203 
   11958.370      117.837       53.218        2.207 
   11959.370      119.337       49.587        2.208 
   11960.370      120.329       50.434        2.209 
   11961.370      120.845       53.186        2.207 
   11962.370      119.703       53.397        2.202 
   11963.370      117.589       53.064        2.227 
   11964.370      115.497       57.469        2.269 
   11965.370      115.477       63.977        2.304 
   11966.370      117.793       63.509        2.285 
   11967.370      119.869       57.534        2.224 
   11968.370      120.050       51.379        2.214 
   11969.370      118.697       47.314        2.223 
   11970.370      120.668       50.197        2.201 
   11971.370      122.422       52.384        2.163 
   11972.370      123.029       54.394        2.149 
   11973.370      123.102       55.335        2.153 
   11974.370      123.507       51.333        2.162 
   11975.370      123.595       49.928        2.166 
   11976.370      121.891       52.812        2.177 
   11977.370      118.498       50.280        2.190 
   11978.370      114.158       51.304        2.209 
   11979.370      111.065       57.792        2.239 
   11980.370      113.221       65.788        2.276 
   11981.370      119.302       59.799        2.217 
   11982.370      122.456       53.857        2.185 
   11983.370      122.805       52.181        2.182 
   11984.370      122.460       51.645        2.191 
   11985.370      121.606       53.491        2.193 
   11986.370      121.031       55.985        2.190 
   11987.370      122.289       54.691        2.198 
   11988.370      123.808       51.021        2.201 
   11989.370      124.190       47.030        2.189 
   11990.370      123.216       48.918        2.187 
   11991.370      124.140       50.754        2.186 
   11992.370      126.794       51.040        2.162 
   11993.370      128.371       50.023        2.160 
   11994.370      129.246       50.047        2.159 
   11995.370      129.683       50.293        2.148 
   11996.370      129.992       47.390        2.145 
   11997.370      130.137       46.774        2.148 
   11998.370      129.645       48.938        2.147 
   11999.370      127.509       46.389        2.180 
   12000.370      122.173       47.470        2.254 
   12001.370      126.936       51.090        2.229 
   12002.370      132.311       52.825        2.139 
   12003.370      133.509       52.566        2.121 
   12004.370      133.103       50.860        2.142 
   12005.370      131.981       49.010        2.153 
   12006.370      130.391       46.224        2.160 
   12007.370      129.904       50.112        2.148 
   12008.370      130.737       50.849        2.141 
   12009.370      131.027       48.694        2.145 
   12010.370      129.929       48.195        2.151 
   12011.370      129.513       49.734        2.149 
   12012.370      129.540       50.136        2.146 
   12013.370      130.137       49.989        2.150 
   12014.370      131.170       53.593        2.144 
   12015.370      131.719       54.697        2.134 
   12016.370      131.536       52.572        2.144 
   12017.370      130.657       54.596        2.166 
   12018.370      130.279       55.257        2.176 
   12019.370      129.818       53.712        2.175 
   12020.370      128.946       56.158        2.170 
   12021.370      127.236       56.884        2.173 
   12022.370      124.644       54.830        2.174 
   12023.370      122.315       54.321        2.181 
   12024.370      120.627       56.379        2.187 
   12025.370      119.064       65.418        2.222 
   12026.370      117.288       75.443        2.261 
   12027.370      115.515       78.652        2.246 
   12028.370      114.789       80.039        2.241 
   12029.370      115.235       78.877        2.201 
   12030.370      114.761       79.587        2.152 
   12031.370      114.794       81.282        2.134 
   12032.370      115.171       78.131        2.159 
   12033.370      115.451       76.094        2.147 
   12034.370      115.303       76.610        2.100 
   12035.370      115.257       80.518        2.087 
   12036.370      115.615       81.256        2.158 
   12037.370      116.356       85.841        2.254 
   12038.370      117.207       84.311        2.255 
   12039.370      117.476       83.226        2.242 
   12040.370      117.462       88.381        2.263 
   12041.370      116.412       87.455        2.298 
   12042.370      117.058       85.561        2.300 
   12043.370      117.539       88.845        2.276 
   12044.370      118.302       87.094        2.266 
   12045.370      117.938       76.939        2.258 
   12046.370      114.383       68.807        2.279 
   12047.370      104.891       62.896        2.321 
   12048.370       98.257       52.626        2.354 
   12049.370       97.673       48.689        2.382 
   12050.370      101.429       49.969        2.378 
   12051.370      102.408       49.689        2.348 
   12052.370      101.148       49.784        2.334 
   12053.370      101.365       49.739        2.344 
   12054.370      103.771       54.181        2.350 
   12055.370      103.629       58.866        2.333 
   12056.370      101.816       60.862        2.324 
   12057.370       98.371       57.326        2.336 
   12058.370       97.463       46.302        2.335 
   12059.370       98.549       46.136        2.332 
   12060.370      100.029       45.958        2.329 
   12061.370      102.588       46.292        2.326 
   12062.370      108.632       51.490        2.320 
   12063.370      115.486       56.351        2.292 
   12064.370      117.276       59.510        2.245 
   12065.370      115.004       59.842        2.225 
   12066.370      111.458       61.124        2.233 
   12067.370      115.432       62.023        2.226 
   12068.370      120.778       70.218        2.166 
   12069.370      121.040       75.592        2.064 
   12070.370      119.859       80.608        2.009 
   12071.370      119.047       77.146        2.076 
   12072.370      120.481       71.013        2.125 
   12073.370      120.524       75.061        2.105 
   12074.370      119.240       76.772        2.067 
