~Version Information Section
VERS.                 2.0:  CWLS log ASCII Standard -VERSION 2.0 
WRAP.                  NO:  One line per depth step 
DLM .               SPACE:  Column Data Section Delimiter
~Well Information Section 
#MNEM.UNIT       Data Type    Information 
#---------     -----------    -------------------------------
STRT.F           4072.3699: 
STOP.F          19473.3691: 
STEP.F              1.0000: 
NULL.              -999.25: 
COMP.              COMPANY: 
WELL.                 WELL:   MC 854-2
FLD .                FIELD: 
LOC .             LOCATION: 
PROV.             PROVINCE: 
SRVC.      SERVICE COMPANY: 
CTRY.              COUNTRY: 
DATE.             LOG DATE: 
UWI .       UNIQUE WELL ID: 
LATI.             LATITUDE:   
LONG.            LONGITUDE:   
~Curve Information Section 
#MNEM.UNIT      API Code      Curve Description 
#---------     -----------    -------------------------------
DEPTH.FT                 :     1   TVD - 
DT_ED.us/ft              :     2   DT - 
GRD .API                 :     3   GR - 
rhob_merge.g/cc          :     4   RHOB - 
~Parameter Information Section
#MNEM.UNIT         Value      Description  
#---------     -----------    -------------------------------
~A         DEPTH      DT_ED      GRD      rhob_merge
# ...
   10112.370      130.962       88.166        2.201 
   10113.370      130.962       89.734        2.193 
   10114.370      131.611       88.750        2.182 
   10115.370      132.738       87.255        2.179 
   10116.370      134.158       88.200        2.191 
   10117.370      134.909       86.910        2.196 
   10118.370      134.683       85.368        2.192 
   10119.370      134.061       85.302        2.190 
   10120.370      133.481       86.065        2.192 
   10121.370      133.383       88.512        2.193 
   10122.370      133.545       90.859        2.210 
   10123.370      134.251       91.860        2.223 
   10124.370      134.969       89.452        2.201 
   10125.370      135.194       85.910        2.179 
   10126.370      135.328       85.823        2.181 
   10127.370      135.328       84.142        2.191 
   10128.370      135.120       83.490        2.192 
   10129.370      134.542       83.377        2.206 
   10130.370      134.183       84.215        2.212 
   10131.370      134.114       85.143        2.219 
   10132.370      134.114       86.529        2.225 
   10133.370      134.316       86.665        2.232 
   10134.370      134.698       87.713        2.230 
   10135.370      135.234       93.510        2.216 
   10136.370      135.771       93.886        2.200 
   10137.370      135.682       89.358        2.192 
   10138.370      133.982       84.396        2.191 
   10139.370      133.161       84.977        2.178 
   10140.370      133.689       84.132        2.154 
   10141.370      132.497       82.968        2.139 
   10142.370      131.601       84.709        2.136 
   10143.370      130.967       84.723        2.136 
   10144.370      130.604       80.401        2.144 
   10145.370      130.342       81.543        2.162 
   10146.370      129.931       84.598        2.173 
   10147.370      129.506       86.116        2.192 
   10148.370      128.895       83.533        2.204 
   10149.370      128.624       85.861        2.193 
   10150.370      128.305       89.094        2.196 
   10151.370      127.961       84.008        2.198 
   10152.370      127.600       85.728        2.179 
   10153.370      127.971       89.234        2.164 
   10154.370      128.013       84.576        2.183 
   10155.370      128.029       85.673        2.201 
   10156.370      128.047       91.485        2.203 
   10157.370      128.065       91.542        2.196 
   10158.370      128.082       89.158        2.194 
   10159.370      128.102       86.481        2.204 
   10160.370      128.488       83.703        2.205 
   10161.370      128.986       83.581        2.190 
   10162.370      129.508       82.375        2.166 
   10163.370      129.865       80.308        2.187 
   10164.370      130.095       78.796        2.201 
   10165.370      130.324       82.231        2.200 
   10166.370      130.728       84.420        2.179 
   10167.370      131.373       83.469        2.158 
   10168.370      132.102       87.782        2.157 
   10169.370      133.003       86.603        2.155 
   10170.370      134.067       83.950        2.163 
   10171.370      134.098       82.470        2.194 
   10172.370      131.492       84.007        2.202 
   10173.370      128.875       85.211        2.218 
   10174.370      129.683       79.713        2.247 
   10175.370      128.560       77.316        2.240 
   10176.370      128.067       77.980        2.234 
   10177.370      127.791       81.603        2.239 
   10178.370      127.794       79.423        2.242 
   10179.370      127.811       84.179        2.252 
   10180.370      127.619       84.380        2.260 
   10181.370      127.605       80.076        2.248 
   10182.370      127.462       81.385        2.219 
   10183.370      127.049       83.565        2.225 
   10184.370      126.889       83.266        2.239 
   10185.370      126.611       78.363        2.239 
   10186.370      126.342       78.447        2.216 
   10187.370      126.081       74.266        2.163 
   10188.370      125.352       72.506        2.176 
   10189.370      124.527       77.275        2.262 
   10190.370      123.007       81.318        2.283 
   10191.370      119.667       81.719        2.280 
   10192.370      118.820       78.340        2.304 
   10193.370      121.024       74.811        2.306 
   10194.370      121.416       72.699        2.286 
   10195.370      119.995       74.125        2.308 
   10196.370      119.815       76.759        2.321 
   10197.370      121.455       77.996        2.291 
   10198.370      121.596       76.753        2.263 
   10199.370      121.774       76.244        2.239 
   10200.370      122.051       75.980        2.242 
   10201.370      122.224       79.881        2.261 
   10202.370      122.179       78.685        2.256 
   10203.370      122.595       79.264        2.240 
   10204.370      122.728       76.927        2.231 
   10205.370      122.731       77.737        2.235 
   10206.370      122.661       77.033        2.244 
   10207.370      122.549       75.758        2.229 
   10208.370      122.631       78.705        2.190 
   10209.370      122.739       78.235        2.187 
   10210.370      122.456       76.868        2.222 
   10211.370      122.259       77.154        2.232 
   10212.370      122.030       81.263        2.224 
   10213.370      121.649       84.765        2.238 
   10214.370      121.620       79.184        2.233 
   10215.370      121.673       73.376        2.201 
   10216.370      121.850       75.991        2.210 
   10217.370      122.517       78.787        2.214 
   10218.370      122.969       76.780        2.220 
   10219.370      123.419       76.331        2.217 
   10220.370      123.602       80.943        2.196 
   10221.370      123.917       82.880        2.198 
   10222.370      123.950       82.560        2.257 
   10223.370      123.966       82.138        2.295 
   10224.370      123.706       80.099        2.316 
   10225.370      123.244       78.766        2.325 
   10226.370      122.884       82.642        2.328 
   10227.370      122.511       81.875        2.326 
   10228.370      122.107       80.908        2.311 
   10229.370      121.742       83.302        2.276 
   10230.370      121.545       83.853        2.261 
   10231.370      120.970       83.362        2.247 
   10232.370      120.519       82.594        2.205 
   10233.370      120.118       81.769        2.203 
   10234.370      120.082       81.850        2.212 
   10235.370      120.288       84.735        2.174 
   10236.370      120.953       87.870        2.176 
   10237.370      121.461       89.998        2.217 
   10238.370      121.680       85.675        2.218 
   10239.370      121.710       81.249        2.176 
   10240.370      121.739       80.632        2.168 
   10241.370      121.470       80.285        2.201 
   10242.370      120.653       74.784        2.228 
   10243.370      120.258       74.036        2.229 
   10244.370      120.073       77.393        2.216 
   10245.370      120.144       77.660        2.220 
   10246.370      120.162       79.567        2.227 
   10247.370      120.178       83.870        2.211 
   10248.370      120.221       86.205        2.201 
   10249.370      120.615       82.967        2.206 
   10250.370      121.186       83.132        2.203 
   10251.370      121.997       83.559        2.206 
   10252.370      122.767       80.613        2.213 
   10253.370      123.344       82.104        2.221 
   10254.370      123.608       82.582        2.222 
   10255.370      123.673       76.421        2.227 
   10256.370      123.476       73.094        2.228 
   10257.370      122.492       76.511        2.229 
   10258.370      122.651       79.111        2.221 
   10259.370      122.093       81.213        2.218 
   10260.370      121.951       81.402        2.212 
   10261.370      121.762       80.837        2.201 
   10262.370      122.051       81.736        2.215 
